,X,Y,OBJECTID,Provider_Name,Provider_Name2,Address,Address2,City,State,Zip,County,Phone,Website_URL,Date_Last_Update,Type,Detoxification,Mental_Health,Substance_Abuse,Transitional_Housing,Opiod_Treatment_Settings,SAMHSA_Cert_Opioid_Treatment_Program,Buprenorphine_Maintenance,Buprenorphine_Maintenance_for_Predetermined_Time,Buprenorphine_Detoxification,Buprenorphine_used_in_Treatment,Naltrexone_used_in_Treatment,Methadone_Maintenance,Methadone_Maintenance_for_Predetermined_time,Methadone_Detoxification,Prescribes_administers_Buprenorphine,Prescribes_administers_Naltrexone,Relapse_prevention_from_Naltrexone,Use_methadone_buprenorphine_for_pain_mgmt_emergency,Accepts_clients_on_opioid_medication,Do_not_use_medication_for_Opioid_Addiction,Does_not_treat_Opioid_Addiction,Facility_Type,Age_Groups_Served,Date_Data_Published_CDPHE,Directions,LATITUDE,LONGITUDE,Special Connection Provider,Area of Service,About,Special_Connection_Approved
0,-105.0973233,39.578575,1,Shiloh House,Estes,7623 South Estes Court,,Littleton,CO,80128,Jefferson,303-932-9599,http://shilohhouse.org/,2018/03/06 16:18:03.140,Mental health treatment,,Mental health treatment    ,,,,,,,,,,,,,,,,,,,,Residential treatment center (RTC) for children ,Children and Adolescents,October 2018,"https://maps.google.com/?q=7623 South Estes Court, Littleton, CO 80128",39.578575,-105.0973233,0,,,False
1,-105.0856309,39.5863592,2,Shiloh House,Yarrow,7227 South Yarrow Court,,Littleton,CO,80128,Jefferson,303-932-9599,http://shilohhouse.org/,2018/03/06 16:18:04.755,Mental health treatment,,Mental health treatment    ,,,,,,,,,,,,,,,,,,,,Residential treatment center (RTC) for children ,Children and Adolescents,October 2018,"https://maps.google.com/?q=7227 South Yarrow Court, Littleton, CO 80128",39.5863592,-105.0856309,0,,,False
2,-105.0708277,39.5904181,3,Shiloh Home Inc,Portland,6629 West Portland Avenue,,Littleton,CO,80128,Jefferson,303-973-9677,http://www.shilohhouse.org,2017/02/27 11:25:37,Mental health treatment,,Mental health treatment    ,,,,,,,,,,,,,,,,,,,,Residential treatment center (RTC) for children ,Children and Adolescents,October 2018,"https://maps.google.com/?q=6629 West Portland Avenue, Littleton, CO 80128",39.5904181,-105.0708277,0,,,False
3,-105.043408,39.759405,4,Tennyson Center for Children at,Colorado Christian Home,2950 Tennyson Street,,Denver,CO,80212,Denver,303-433-2541,http://www.tennysoncenter.org,2017/02/27 11:25:37,Mental health treatment,,Mental health treatment    ,,,,,,,,,,,,,,,,,,,,Residential treatment center (RTC) for children ,Children and Adolescents,October 2018,"https://maps.google.com/?q=2950 Tennyson Street, Denver, CO 80212",39.759405,-105.043408,0,,,False
4,-105.0353685,39.7744566,5,Mount Saint Vincent Home,,4159 Lowell Boulevard,,Denver,CO,80211,Denver,303-458-7220 x238,http://www.msvhome.org,2017/06/15 09:36:46.575,Mental health treatment,,Mental health treatment    ,,,,,,,,,,,,,,,,,,,,Residential treatment center (RTC) for children ,Children and Adolescents,October 2018,"https://maps.google.com/?q=4159 Lowell Boulevard, Denver, CO 80211",39.7744566,-105.0353685,0,,,False
5,-104.99225,39.850175,6,Shiloh Home Inc,Sanctuary,8461 Delaware Street,,Denver,CO,80260,Adams,303-933-1393,http://www.shilohhouse.org,2017/02/27 11:25:37,Mental health treatment,,Mental health treatment    ,,,,,,,,,,,,,,,,,,,,Residential treatment center (RTC) for children ,Children and Adolescents,October 2018,"https://maps.google.com/?q=8461 Delaware Street, Denver, CO 80260",39.850175,-104.99225,0,,,False
6,-104.8762016,39.5862271,7,Shiloh Home Inc,FRP,9700 East Easter Lane,,Englewood,CO,80112,Arapahoe,720-213-1399,http://shilohhouse.org/,2018/03/06 16:18:05.478,Mental health treatment,,Mental health treatment    ,,,,,,,,,,,,,,,,,,,,Residential treatment center (RTC) for children ,Children and Adolescents,October 2018,"https://maps.google.com/?q=9700 East Easter Lane, Englewood, CO 80112",39.5862271,-104.8762016,0,,,False
7,-104.83093,39.694392,8,Jefferson Hills,Aurora,1290 South Potomac Street,,Aurora,CO,80012,Arapahoe,303-745-1281,http://www.jeffersonhills.org,2017/02/27 11:25:37,Mental health treatment,,Mental health treatment    ,,,,,,,,,,,,,,,,,,,,Residential treatment center (RTC) for children ,Children and Adolescents,October 2018,"https://maps.google.com/?q=1290 South Potomac Street, Aurora, CO 80012",39.694392,-104.83093,0,,,False
8,-105.0413581,40.1611476,9,Shiloh House,Longmont Campus,2700 East Ken Pratt Boulevard,,Longmont,CO,80504,Boulder,303-772-3138,http://shilohhouse.org/,2018/03/06 16:18:04.052,Mental health treatment,,Mental health treatment    ,,,,,,,,,,,,,,,,,,,,Residential treatment center (RTC) for children ,Children and Adolescents,October 2018,"https://maps.google.com/?q=2700 East Ken Pratt Boulevard, Longmont, CO 80504",40.1611476,-105.0413581,0,,,False
9,-105.074887,40.568121,10,Remington House,,1516 Remington Street,,Fort Collins,CO,80524,Larimer,970-484-7447,http://www.jacobcenter.org,2017/02/27 11:25:37,Mental health treatment,,Mental health treatment    ,,,,,,,,,,,,,,,,,,,,Residential treatment center (RTC) for children ,Children and Adolescents,October 2018,"https://maps.google.com/?q=1516 Remington Street, Fort Collins, CO 80524",40.568121,-105.074887,0,,,False
10,-108.548838,39.089289,11,Hilltop Youth Services ATU,,1405 Wellington Avenue,,Grand Junction,CO,81501,Mesa,970-245-3952,http://www.htop.org/youth/patu,2017/02/27 11:25:37,Mental health treatment,,Mental health treatment    ,,,,,,,,,,,,,,,,,,,,Residential treatment center (RTC) for children ,Children and Adolescents,October 2018,"https://maps.google.com/?q=1405 Wellington Avenue, Grand Junction, CO 81501",39.089289,-108.548838,0,,,False
11,-108.5490529,39.0897783,12,Hilltop Residential Youth Services,,1405 Wellington Avenue,,Grand Junction,CO,81501,Mesa,970-244-0591,http://www.htop.org/,2018/03/06 16:19:10.408,Mental health treatment,,Mental health treatment    ,,,,,,,,,,,,,,,,,,,,Residential treatment center (RTC) for children ,Children and Adolescents,October 2018,"https://maps.google.com/?q=1405 Wellington Avenue, Grand Junction, CO 81501",39.0897783,-108.5490529,0,,,False
12,-108.558421,39.066034,13,Gateway Residential Services,Grand Junction,835 Colorado Avenue,,Grand Junction,CO,81501,Mesa,970-245-0008 x7103,http://,2017/02/27 11:25:37,Mental health treatment,,Mental health treatment    ,,,,,,,,,,,,,,,,,,,,Residential treatment center (RTC) for children ,Children and Adolescents,October 2018,"https://maps.google.com/?q=835 Colorado Avenue, Grand Junction, CO 81501",39.066034,-108.558421,0,,,False
13,-105.282416,40.027304,14,Mental Health Partners,Warner House,2833 Broadway Street,,Boulder,CO,80304,Boulder,303-449-2217,http://www.mhpcolorado.org,2017/08/15 10:01:07.054,Mental health treatment,,Mental health treatment    ,,,,,,,,,,,,,,,,,,,,Residential treatment center (RTC) for adults,"Adults, Seniors, Young Adults",October 2018,"https://maps.google.com/?q=2833 Broadway Street, Boulder, CO 80304",40.027304,-105.282416,0,,,False
14,-104.9862663,39.9012434,15,Community Reach Center,Stages,11285 Highline Drive,,Denver,CO,80233,Adams,303-853-3500,http://,2018/01/26 09:50:49.036,Mental health treatment,,Mental health treatment    ,,,,,,,,,,,,,,,,,,,,Residential treatment center (RTC) for adults,"Adults, Seniors, Young Adults",October 2018,"https://maps.google.com/?q=11285 Highline Drive, Denver, CO 80233",39.9012434,-104.9862663,0,,,False
15,-104.6980862,40.4485851,16,North Range Behavioral Health,Acute Treatment Unit and Detox,1140 M Street,,Greeley,CO,80631,Weld,970-347-2120,http://www.northrange.org,2017/02/27 11:25:37,Mental health treatment,,Mental health treatment    ,,,,,,,,,,,,,,,,,,,,Residential treatment center (RTC) for adults,"Adults, Seniors, Young Adults",October 2018,"https://maps.google.com/?q=1140 M Street, Greeley, CO 80631",40.4485851,-104.6980862,0,,,False
16,-103.795364,40.2597187,17,Colorado Plains Medical Center,Healthier You Intensive Outpatient,1000 South Lincoln Street,,Fort Morgan,CO,80701,Morgan,970-542-4357,http://www.coloradoplainsmedicalcenter.com,2018/09/05 10:06:04.132,Mental health treatment,,Mental health treatment    ,,,,,,,,,,,,,,,,,,,,Psychiatric hospital or psychiatric unit of a general hospital,Seniors,October 2018,"https://maps.google.com/?q=1000 South Lincoln Street, Fort Morgan, CO 80701",40.2597187,-103.795364,0,,,False
17,-105.032593,39.641001,18,Colorado Mental Health Institute,Fort Logan,3520 West Oxford Avenue,,Denver,CO,80236,Denver,303-866-7066,http://www.CHS-Behavioralhealth,2017/02/27 11:25:37,Mental health treatment,,Mental health treatment    ,,,,,,,,,,,,,,,,,,,,Psychiatric hospital or psychiatric unit of a general hospital,"Adults, Young Adults",October 2018,"https://maps.google.com/?q=3520 West Oxford Avenue, Denver, CO 80236",39.641001,-105.032593,0,,,False
18,-103.796143,40.259327,19,Colorado Plains Medical Center,Geriatric Behavioral Health Unit,1000 Lincoln Street,,Fort Morgan,CO,80701,Morgan,970-542-4357,http://,2017/02/27 11:25:37,Mental health treatment,,Mental health treatment    ,,,,,,,,,,,,,,,,,,,,Psychiatric hospital or psychiatric unit of a general hospital,"Adults, Seniors",October 2018,"https://maps.google.com/?q=1000 Lincoln Street, Fort Morgan, CO 80701",40.259327,-103.796143,0,,,False
19,-105.0874052,39.7646618,20,West Pines Behavioral Health,,3400 Lutheran Parkway,,Wheat Ridge,CO,80033,Jefferson,303-467-4000,http://www.westpinesrecovery.org,2017/02/27 11:25:37,Mental health treatment,,Mental health treatment    ,,,,,,,,,,,,,,,,,,,,Psychiatric hospital or psychiatric unit of a general hospital,"Adults, Seniors, Young Adults",October 2018,"https://maps.google.com/?q=3400 Lutheran Parkway, Wheat Ridge, CO 80033",39.7646618,-105.0874052,0,,,False
20,-105.282854,40.025144,21,Boulder Community Hospital,Behavioral Health,1136 Alpine Avenue,Suite 205,Boulder,CO,80304,Boulder,303-440-2277,http://,2017/02/27 11:25:37,Mental health treatment,,Mental health treatment    ,,,,,,,,,,,,,,,,,,,,Psychiatric hospital or psychiatric unit of a general hospital,"Adults, Seniors, Young Adults",October 2018,"https://maps.google.com/?q=1136 Alpine Avenue, Boulder, CO 80304",40.025144,-105.282854,0,,,False
21,-105.2362488,40.0163244,22,Boulder Community Health,,4747 Arapahoe Avenue,,Boulder,CO,80303,Boulder,303-415-7000,http://www.bch.org,2017/02/27 11:25:37,Mental health treatment,,Mental health treatment    ,,,,,,,,,,,,,,,,,,,,Psychiatric hospital or psychiatric unit of a general hospital,"Adults, Seniors, Young Adults",October 2018,"https://maps.google.com/?q=4747 Arapahoe Avenue, Boulder, CO 80303",40.0163244,-105.2362488,0,,,False
22,-104.974773,39.670117,23,Porter Adventist Hospital,Behavioral Health 1 South,2525 South Downing Street,,Denver,CO,80210,Denver,303-765-6372,http://www.porterhospital.org/poh/specialties/behavioral-health/,2017/02/27 11:25:37,Mental health treatment,,Mental health treatment    ,,,,,,,,,,,,,,,,,,,,Psychiatric hospital or psychiatric unit of a general hospital,"Adults, Seniors, Young Adults",October 2018,"https://maps.google.com/?q=2525 South Downing Street, Denver, CO 80210",39.670117,-104.974773,0,,,False
23,-104.8266628,39.5586233,24,Denver Springs,,8835 American Way,,Englewood,CO,80112,Arapahoe,720-643-4300,http://www.denversprings.com/,2017/05/30 11:44:44,Mental health treatment,,Mental health treatment    ,,,,,,,,,,,,,,,,,,,,Psychiatric hospital or psychiatric unit of a general hospital,"Adults, Seniors, Young Adults",October 2018,"https://maps.google.com/?q=8835 American Way, Englewood, CO 80112",39.5586233,-104.8266628,0,,,False
24,-104.716401,38.937781,25,Peak View Behavioral Health,,7353 Sisters Grove,,Colorado Springs,CO,80923,El Paso,719-444-8484,http://www.PeakView.com,2017/02/27 11:25:37,Mental health treatment,,Mental health treatment    ,,,,,,,,,,,,,,,,,,,,Psychiatric hospital or psychiatric unit of a general hospital,"Adults, Children and Adolescents, Seniors, Young Adults",October 2018,"https://maps.google.com/?q=7353 Sisters Grove, Colorado Springs, CO 80923",38.937781,-104.716401,0,,,False
25,-104.817579,38.801422,26,Cedar Springs Hospital,,2135 Southgate Road,,Colorado Springs,CO,80906,El Paso,719-633-4114,http://www.Cedarspringshospital.com,2017/02/27 11:25:37,Mental health treatment,,Mental health treatment    ,,,,,,,,,,,,,,,,,,,,Psychiatric hospital or psychiatric unit of a general hospital,"Adults, Children and Adolescents, Seniors, Young Adults",October 2018,"https://maps.google.com/?q=2135 Southgate Road, Colorado Springs, CO 80906",38.801422,-104.817579,0,,,False
26,-105.0284598,40.5220128,27,Poudre Valley Hosp Mountain Crest,,4601 Corbett Drive,,Fort Collins,CO,80528,Larimer,970-207-4800 x4811,http://uchealth.org,2018/05/29 15:29:11.017,Mental health treatment,,Mental health treatment    ,,,,,,,,,,,,,,,,,,,,Psychiatric hospital or psychiatric unit of a general hospital,"Adults, Children and Adolescents, Seniors, Young Adults",October 2018,"https://maps.google.com/?q=4601 Corbett Drive, Fort Collins, CO 80528",40.5220128,-105.0284598,0,,,False
27,-104.612694,38.2817831,28,Parkview Medical Center,Behavioral Health,400 West 16th Street,,Pueblo,CO,81003,Pueblo,719-584-4000,http://www.parkviewmc.com/,2018/03/06 16:11:54.335,Mental health treatment,,Mental health treatment    ,,,,,,,,,,,,,,,,,,,,Psychiatric hospital or psychiatric unit of a general hospital,"Adults, Children and Adolescents, Seniors, Young Adults",October 2018,"https://maps.google.com/?q=400 West 16th Street, Pueblo, CO 81003",38.2817831,-104.612694,0,,,False
28,-108.520384,39.07899,29,West Springs Hospital,,515 28 3/4 Road,,Grand Junction,CO,81501,Mesa,970-263-4918,http://www.mindspringshealth.org,2017/02/27 11:25:37,Mental health treatment,,Mental health treatment    ,,,,,,,,,,,,,,,,,,,,Psychiatric hospital or psychiatric unit of a general hospital,"Adults, Children and Adolescents, Seniors, Young Adults",October 2018,"https://maps.google.com/?q=515 28 3/4 Road, Grand Junction, CO 81501",39.07899,-108.520384,0,,,False
29,-104.8630202,39.7105216,30,Aurora CMHC/Metro Childrens Ctr,School Based Services Center Child,10782 East Alameda Avenue,,Aurora,CO,80012,Arapahoe,303-617-2625,http://aumhc.org,2018/03/27 09:31:34.796,Mental health treatment,,Mental health treatment    ,,,,,,,,,,,,,,,,,,,,Partial hospitalization/day treatment,Children and Adolescents,October 2018,"https://maps.google.com/?q=10782 East Alameda Avenue, Aurora, CO 80012",39.7105216,-104.8630202,0,,,False
30,-104.939407,39.7406494,31,Denver Childrens Home,,1501 Albion Street,,Denver,CO,80220,Denver,303-399-4890 x205,http://www.denverchildrenshome.org,2017/04/03 13:14:19,Mental health treatment,,Mental health treatment    ,,,,,,,,,,,,,,,,,,,,Other residential treatment facility,"Children and Adolescents, Young Adults",October 2018,"https://maps.google.com/?q=1501 Albion Street, Denver, CO 80220",39.7406494,-104.939407,0,,,False
31,-105.0737795,40.5795824,32,Turning Point Ctr for Youth/Family,Development Inc/Boys,614 Mathews Street,,Fort Collins,CO,80524,Larimer,970-366-9926,http://www.turningpnt.org,2018/03/27 09:08:09.894,Mental health treatment,,Mental health treatment    ,,,,,,,,,,,,,,,,,,,,Other residential treatment facility,"Children and Adolescents, Young Adults",October 2018,"https://maps.google.com/?q=614 Mathews Street, Fort Collins, CO 80524",40.5795824,-105.0737795,0,,,False
32,-104.785209,38.829492,33,AspenPointe,Health Services,179 South Parkside Drive,,Colorado Springs,CO,80910,El Paso,719-572-6100,http://www.aspenpointe.org,2018/02/05 15:14:05.412,Mental health treatment,,Mental health treatment    ,,,,,,,,,,,,,,,,,,,,Outpatient mental health facility,"Children and Adolescents, Young Adults",October 2018,"https://maps.google.com/?q=179 South Parkside Drive, Colorado Springs, CO 80910",38.829492,-104.785209,0,,,False
33,-105.0967674,40.560991,34,SummitStone Health Partners,Childrens and Family Services,2001 South Shields Street,Suite K,Fort Collins,CO,80526,Larimer,970-494-4200,http://,2017/02/27 11:25:37,Mental health treatment,,Mental health treatment    ,,,,,,,,,,,,,,,,,,,,Outpatient mental health facility,"Children and Adolescents, Young Adults",October 2018,"https://maps.google.com/?q=2001 South Shields Street, Fort Collins, CO 80526",40.560991,-105.0967674,0,,,False
34,-104.996891,39.654351,35,Community Care Corp,Wellness Treatment Center,800 Englewood Parkway,Unit B-202,Englewood,CO,80110,Arapahoe,303-777-0303,http://wellnesstreatmentcenter.com/,2017/02/27 11:25:37,Mental health treatment,,Mental health treatment    ,,,,,,,,,,,,,,,,,,,,Outpatient mental health facility,"Adults, Seniors, Young Adults",October 2018,"https://maps.google.com/?q=800 Englewood Parkway, Englewood, CO 80110",39.654351,-104.996891,0,,,False
35,-104.9903006,39.7262841,36,Denver Health Medical Center,Outpatient Behavioral Health Services,667 Bannock Street,Unit 9,Denver,CO,80204,Denver,303-436-6388,http://denverhealth.org,2017/02/27 11:25:37,Mental health treatment,,Mental health treatment    ,,,,,,,,,,,,,,,,,,,,Outpatient mental health facility,"Adults, Seniors, Young Adults",October 2018,"https://maps.google.com/?q=667 Bannock Street, Denver, CO 80204",39.7262841,-104.9903006,0,,,False
36,-104.9784,39.735343,37,CHARG Resource Center,,709 East 12th Avenue,,Denver,CO,80203,Denver,303-830-8805,http://www.charg.org/,2017/02/27 11:25:37,Mental health treatment,,Mental health treatment    ,,,,,,,,,,,,,,,,,,,,Outpatient mental health facility,"Adults, Seniors, Young Adults",October 2018,"https://maps.google.com/?q=709 East 12th Avenue, Denver, CO 80203",39.735343,-104.9784,0,,,False
37,-104.9595302,39.7419332,38,Empowerment Program Inc,Speciality Clinic,1600 York Street,,Denver,CO,80206,Denver,303-320-1989 x211,http://empowermentprogram.org,2017/06/15 10:07:10.950,Mental health treatment,,Mental health treatment    ,,,,,,,,,,,,,,,,,,,,Outpatient mental health facility,"Adults, Seniors, Young Adults",October 2018,"https://maps.google.com/?q=1600 York Street, Denver, CO 80206",39.7419332,-104.9595302,0,,,False
38,-104.8545045,38.8742664,39,Saint Francis Behavioral Health,Penrose,2925 Professional Place,Suite 101,Colorado Springs,CO,80904,El Paso,719-776-6850,http://www.penrosestfrancis.org/psf/specialties/behavioral-health/,2017/12/18 08:40:36.846,Mental health treatment,,Mental health treatment    ,,,,,,,,,,,,,,,,,,,,Outpatient mental health facility,"Adults, Seniors, Young Adults",October 2018,"https://maps.google.com/?q=2925 Professional Place, Colorado Springs, CO 80904",38.8742664,-104.8545045,0,,,False
39,-104.5976682,38.3060238,40,Health Solutions,Crestone Recovery,41 Montebello Road,Suite LL1,Pueblo,CO,81001,Pueblo,719-543-7115,http://www.health.solutions,2018/05/14 11:28:49.443,Mental health treatment,,Mental health treatment    ,,,,,,,,,,,,,,,,,,,,Outpatient mental health facility,"Adults, Seniors, Young Adults",October 2018,"https://maps.google.com/?q=41 Montebello Road, Pueblo, CO 81001",38.3060238,-104.5976682,0,,,False
40,-104.600063,38.289923,41,Health Solutions,,1304 Chinook Lane,,Pueblo,CO,81001,Pueblo,719-542-2746,http://www.health.solutions,2017/02/27 11:25:37,Mental health treatment,,Mental health treatment    ,,,,,,,,,,,,,,,,,,,,Outpatient mental health facility,"Adults, Seniors, Young Adults",October 2018,"https://maps.google.com/?q=1304 Chinook Lane, Pueblo, CO 81001",38.289923,-104.600063,0,,,False
41,-105.02708,39.738814,42,Servicios de La Raza Inc,The Mental Health Unit,3131 West 14th Avenue,,Denver,CO,80204,Denver,303-458-5851,http://www.serviciosdelaraza.org,2018/05/29 15:30:16.744,Mental health treatment,,Mental health treatment    ,,,,,,,,,,,,,,,,,,,,Outpatient mental health facility,"Adults, Children and Adolescents, Seniors, Young Adults",October 2018,"https://maps.google.com/?q=3131 West 14th Avenue, Denver, CO 80204",39.738814,-105.02708,0,,,False
42,-104.962925,39.671608,43,Professional Psychology Clinic,,2450 South Vine Street,,Denver,CO,80208,Denver,303-871-3626,http://www.du.edu/gspp/services/index.html,2017/02/27 11:25:37,Mental health treatment,,Mental health treatment    ,,,,,,,,,,,,,,,,,,,,Outpatient mental health facility,"Adults, Children and Adolescents, Seniors, Young Adults",October 2018,"https://maps.google.com/?q=2450 South Vine Street, Denver, CO 80208",39.671608,-104.962925,0,,,False
43,-104.939506,39.672507,44,Mental Health Center of Denver,Wellshire Behavioral Services,4141 East Dickenson Place,,Denver,CO,80222,Denver,303-504-6565,http://www.mhcd.org,2017/02/27 11:25:37,Mental health treatment,,Mental health treatment    ,,,,,,,,,,,,,,,,,,,,Outpatient mental health facility,"Adults, Children and Adolescents, Seniors, Young Adults",October 2018,"https://maps.google.com/?q=4141 East Dickenson Place, Denver, CO 80222",39.672507,-104.939506,0,,,False
44,-104.8824031,39.7412029,45,Asian Pacific Development Center,,1537 Alton Street,,Aurora,CO,80010,Arapahoe,303-923-2920,http://www.apdc.org,2017/06/14 09:50:03.437,Mental health treatment,,Mental health treatment    ,,,,,,,,,,,,,,,,,,,,Outpatient mental health facility,"Adults, Children and Adolescents, Seniors, Young Adults",October 2018,"https://maps.google.com/?q=1537 Alton Street, Aurora, CO 80010",39.7412029,-104.8824031,0,,,False
45,-105.0419964,38.9802608,46,AspenPointe,,18401 Highway 24,Suite 119,Woodland Park,CO,80863,Teller,719-572-6100,http://www.aspenpointe.org,2017/08/17 11:17:56.584,Mental health treatment,,Mental health treatment    ,,,,,,,,,,,,,,,,,,,,Outpatient mental health facility,"Adults, Children and Adolescents, Seniors, Young Adults",October 2018,"https://maps.google.com/?q=18401 Highway 24, Woodland Park, CO 80863",38.9802608,-105.0419964,0,,,False
46,-106.8258309,39.655451,47,Mind Springs Health,Outpatient Clinic Eagle,137 Howard Street,,Eagle,CO,81631,Eagle,970-328-6969,http://www.mindspringshealth.org,2017/02/27 11:25:37,Mental health treatment,,Mental health treatment    ,,,,,,,,,,,,,,,,,,,,Outpatient mental health facility,"Adults, Children and Adolescents, Seniors, Young Adults",October 2018,"https://maps.google.com/?q=137 Howard Street, Eagle, CO 81631",39.655451,-106.8258309,0,,,False
47,-104.9658935,40.0886053,48,North Range Behavioral Health,Carbon Valley Office,4943 Highway 52,Suite 205,Frederick,CO,80530,Weld,303-857-2723,http://www.northrange.org,2018/02/05 15:11:12.101,Mental health treatment,,Mental health treatment    ,,,,,,,,,,,,,,,,,,,,Outpatient mental health facility,"Adults, Children and Adolescents, Seniors, Young Adults",October 2018,"https://maps.google.com/?q=4943 Highway 52, Frederick, CO 80530",40.0886053,-104.9658935,0,,,False
48,-106.83861,39.189391,49,Mind Springs Health,Outpatient Clinic Aspen,405 Castle Creek Road,Suite 9,Aspen,CO,81611,Pitkin,970-920-5555,http://www.mindspringshealth.org,2017/02/27 11:25:37,Mental health treatment,,Mental health treatment    ,,,,,,,,,,,,,,,,,,,,Outpatient mental health facility,"Adults, Children and Adolescents, Seniors, Young Adults",October 2018,"https://maps.google.com/?q=405 Castle Creek Road, Aspen, CO 81611",39.189391,-106.83861,0,,,False
49,-104.8172529,40.0805,50,North Range Behavioral Health,Fort Lupton Office,145 First Street,,Fort Lupton,CO,80621,Weld,303-857-2723,http://www.northrange.org/southcounty,2017/02/27 11:25:37,Mental health treatment,,Mental health treatment    ,,,,,,,,,,,,,,,,,,,,Outpatient mental health facility,"Adults, Children and Adolescents, Seniors, Young Adults",October 2018,"https://maps.google.com/?q=145 First Street, Fort Lupton, CO 80621",40.0805,-104.8172529,0,,,False
50,-105.179421,38.746537,51,AspenPointe,Cripple Creek,166 East Bennett Avenue,,Cripple Creek,CO,80813,Teller,719-572-6100,http://www.aspenpointe.org,2017/02/27 11:25:37,Mental health treatment,,Mental health treatment    ,,,,,,,,,,,,,,,,,,,,Outpatient mental health facility,"Adults, Children and Adolescents, Seniors, Young Adults",October 2018,"https://maps.google.com/?q=166 East Bennett Avenue, Cripple Creek, CO 80813",38.746537,-105.179421,0,,,False
51,-104.7963685,40.4068689,52,North Range Behavorial Health ,Counseling Center at West Greeley,7251 20th Street,Building C,Greeley,CO,80634,Weld,970-347-2120,http://www.northrange.org/services/counselingcenter/,2017/02/27 11:25:37,Mental health treatment,,Mental health treatment    ,,,,,,,,,,,,,,,,,,,,Outpatient mental health facility,"Adults, Children and Adolescents, Seniors, Young Adults",October 2018,"https://maps.google.com/?q=7251 20th Street, Greeley, CO 80634",40.4068689,-104.7963685,0,,,False
52,-107.268333,39.472218,53,Mind Springs Health,Outpatient Clinic Glenwood Springs,6916 Highway 82,Suite A,Glenwood Springs,CO,81601,Garfield,970-945-2583,http://mindspringshealth.org,2017/02/27 11:25:37,Mental health treatment,,Mental health treatment    ,,,,,,,,,,,,,,,,,,,,Outpatient mental health facility,"Adults, Children and Adolescents, Seniors, Young Adults",October 2018,"https://maps.google.com/?q=6916 Highway 82, Glenwood Springs, CO 81601",39.472218,-107.268333,0,,,False
53,-107.913582,40.037,54,Mind Springs Health,Outpatient Clinic Meeker,267 6th Street,,Meeker,CO,81641,Rio Blanco,970-878-5112,http://www.mindspringshealth.org,2017/02/27 11:25:37,Mental health treatment,,Mental health treatment    ,,,,,,,,,,,,,,,,,,,,Outpatient mental health facility,"Adults, Children and Adolescents, Seniors, Young Adults",October 2018,"https://maps.google.com/?q=267 6th Street, Meeker, CO 81641",40.037,-107.913582,0,,,False
54,-104.7771231,37.6204553,55,Health Solutions,Walsenburg Office,926 Russell Avenue,,Walsenburg,CO,81089,Huerfano,719-738-2386,http://www.health.solutions,2017/08/15 10:08:04.884,Mental health treatment,,Mental health treatment    ,,,,,,,,,,,,,,,,,,,,Outpatient mental health facility,"Adults, Children and Adolescents, Seniors, Young Adults",October 2018,"https://maps.google.com/?q=926 Russell Avenue, Walsenburg, CO 81089",37.6204553,-104.7771231,0,,,False
55,-108.5203793,39.078995,56,Mind Springs Health,Outpatient Clinic Grand Junction,515 28 3/4 Road,Building A,Grand Junction,CO,81501,Mesa,970-245-4213,http://www.mindspringshealth.org,2017/02/27 11:25:37,Mental health treatment,,Mental health treatment    ,,,,,,,,,,,,,,,,,,,,Outpatient mental health facility,"Adults, Children and Adolescents, Seniors, Young Adults",October 2018,"https://maps.google.com/?q=515 28 3/4 Road, Grand Junction, CO 81501",39.078995,-108.5203793,MindSprings: Women's Recovery Center,"Grand Junction, Mesa County", Women's Recovery Center,True
56,-108.823551,40.096999,57,Mind Springs Health,Outpatient Clinic Rangely,17497 West Highway 64,,Rangely,CO,81648,Rio Blanco,970-675-8411,http://www.mindspringshealth.org,2017/02/27 11:25:37,Mental health treatment,,Mental health treatment    ,,,,,,,,,,,,,,,,,,,,Outpatient mental health facility,"Adults, Children and Adolescents, Seniors, Young Adults",October 2018,"https://maps.google.com/?q=17497 West Highway 64, Rangely, CO 81648",40.096999,-108.823551,0,,,False
57,-106.07619,39.570135,58,Mind Springs Health,Outpatient Clinic Frisco,360 Peak One Drive,Suite 110,Frisco,CO,80443,Summit,970-668-3478,http://www.mindspringshealth.org,2017/02/27 11:25:37,Mental health treatment,,Mental health treatment    ,,,,,,,,,,,,,,,,,,,,Outpatient mental health facility,"Adults, Children and Adolescents, Seniors, Young Adults",October 2018,"https://maps.google.com/?q=360 Peak One Drive, Frisco, CO 80443",39.570135,-106.07619,0,,,False
58,-105.4584498,39.4411851,59,AspenPointe,Rural Bailey,460 County Road 43A,,Bailey,CO,80421,Park,719-572-6100,http://www.aspenpointe.org,2018/02/05 15:14:28.953,Mental health treatment,,Mental health treatment    ,,,,,,,,,,,,,,,,,,,,Outpatient mental health facility,"Adults, Children and Adolescents, Seniors, Young Adults",October 2018,"https://maps.google.com/?q=460 County Road 43A, Bailey, CO 80421",39.4411851,-105.4584498,0,,,False
59,-105.0904731,39.8819459,60,Devereux Advanced Behav Health,Devereux Cleo Wallace,8405 Church Ranch Boulevard,,Broomfield,CO,80021,Jefferson,800-456-2536,http://www.devereuxcolorado.org,2018/03/27 09:34:41,Mental health treatment,,Mental health treatment    ,,,,,,,,,,,,,,,,,,,,"Multi-setting mental health facility (e.g., residential plus outpatient)","Adults, Children and Adolescents, Young Adults",October 2018,"https://maps.google.com/?q=8405 Church Ranch Boulevard, Broomfield, CO 80021",39.8819459,-105.0904731,0,,,False
60,-104.8327427,39.7490194,61,Aurora Mental Health Center,Crisis Services,2206 Victor Street,,Aurora,CO,80045,Adams,303-617-2300,http://www.aumhc.org,2017/02/27 11:25:37,Mental health treatment,,Mental health treatment    ,,,,,,,,,,,,,,,,,,,,"Multi-setting mental health facility (e.g., residential plus outpatient)","Adults, Children and Adolescents, Seniors, Young Adults",October 2018,"https://maps.google.com/?q=2206 Victor Street, Aurora, CO 80045",39.7490194,-104.8327427,0,,,False
61,-107.8248308,37.2350641,62,Axis Health System,Crossroads Center,1125 Three Springs Boulevard,,Durango,CO,81301,La Plata,970-403-0180,http://www.axishealthsystem.org,2017/02/27 11:25:37,Mental health treatment,,Mental health treatment    ,,,,,,,,,,,,,,,,,,,,"Multi-setting mental health facility (e.g., residential plus outpatient)","Adults, Children and Adolescents, Seniors, Young Adults",October 2018,"https://maps.google.com/?q=1125 Three Springs Boulevard, Durango, CO 81301",37.2350641,-107.8248308,0,,,False
62,-105.075611,40.422976,63,SummitStone Health Partners,,221 East 29th Street,Suite 101,Loveland,CO,80538,Larimer,970-494-4200,http://summitstonehealthpartners.org,2018/02/05 15:14:52.985,Mental health treatment,,Mental health treatment    ,,,,,,,,,,,,,,,,,,,,Community Mental Health Center,Children and Adolescents,October 2018,"https://maps.google.com/?q=221 East 29th Street, Loveland, CO 80538",40.422976,-105.075611,0,,,False
63,-104.9891597,39.5896256,64,AllHealth Network,Child and Family Services,61 West Davies Avenue,,Littleton,CO,80120,Arapahoe,303-730-8858,http://www.allhealthnetwork.org,2017/08/15 09:59:29.778,Mental health treatment,,Mental health treatment    ,,,,,,,,,,,,,,,,,,,,Community Mental Health Center,"Children and Adolescents, Young Adults",October 2018,"https://maps.google.com/?q=61 West Davies Avenue, Littleton, CO 80120",39.5896256,-104.9891597,0,,,False
64,-104.8217043,39.65344,65,Aurora Mental Health Center,Family Outpt/Hampden Academy,14301 East Hampden Avenue,,Aurora,CO,80014,Arapahoe,303-617-2300,http://www.aumhc.org,2018/03/27 09:32:43.851,Mental health treatment,,Mental health treatment    ,,,,,,,,,,,,,,,,,,,,Community Mental Health Center,"Children and Adolescents, Young Adults",October 2018,"https://maps.google.com/?q=14301 East Hampden Avenue, Aurora, CO 80014",39.65344,-104.8217043,0,,,False
65,-104.7901479,39.7198426,66,Aurora Mental Health Center,Intercept Center,16905 East 2nd Avenue,,Aurora,CO,80011,Arapahoe,303-617-2300,http://www.aumhc.org,2017/02/27 11:25:37,Mental health treatment,,Mental health treatment    ,,,,,,,,,,,,,,,,,,,,Community Mental Health Center,"Children and Adolescents, Young Adults",October 2018,"https://maps.google.com/?q=16905 East 2nd Avenue, Aurora, CO 80011",39.7198426,-104.7901479,0,,,False
66,-104.6335048,38.2684559,67,Health Solutions,Youth and Family Services,1012 West Abriendo Avenue,,Pueblo,CO,81004,Pueblo,719-583-2207,http://www.Health.Solutions,2018/05/14 11:29:48.376,Mental health treatment,,Mental health treatment    ,,,,,,,,,,,,,,,,,,,,Community Mental Health Center,"Children and Adolescents, Young Adults",October 2018,"https://maps.google.com/?q=1012 West Abriendo Avenue, Pueblo, CO 81004",38.2684559,-104.6335048,0,,,False
67,-105.0789521,40.5061385,68,SummitStone Health Partners,Administraiton/Adult Services,125 Crestridge Street,,Fort Collins,CO,80525,Larimer,970-494-4200,http://TouchstoneHealthPartners.org,2017/02/27 11:25:37,Mental health treatment,,Mental health treatment    ,,,,,,,,,,,,,,,,,,,,Community Mental Health Center,"Adults, Young Adults",October 2018,"https://maps.google.com/?q=125 Crestridge Street, Fort Collins, CO 80525",40.5061385,-105.0789521,0,,,False
68,-104.697514,40.448038,69,North Range Behavorial Health ,Adult Outpatient Program and BASIC,1260 H Street,,Greeley,CO,80631,Weld,970-347-2120,http://www.northrange.org,2017/02/27 11:25:37,Mental health treatment,,Mental health treatment    ,,,,,,,,,,,,,,,,,,,,Community Mental Health Center,"Adults, Young Adults",October 2018,"https://maps.google.com/?q=1260 H Street, Greeley, CO 80631",40.448038,-104.697514,0,,,False
69,-105.014786,39.6165359,70,AllHealth Network,Sycamore Center,5500 South Sycamore Street,,Littleton,CO,80120,Arapahoe,303-730-8858,http://www.allhealthnetwork.org,2017/02/27 11:25:37,Mental health treatment,,Mental health treatment    ,,,,,,,,,,,,,,,,,,,,Community Mental Health Center,"Adults, Seniors, Young Adults",October 2018,"https://maps.google.com/?q=5500 South Sycamore Street, Littleton, CO 80120",39.6165359,-105.014786,0,,,False
70,-105.2842364,40.0252971,71,Mental Health Partners,Ryan Wellness Center,1000 Alpine Avenue,,Boulder,CO,80304,Boulder,303-443-8500,http://www.mhpcolorado.org,2017/08/15 10:01:27.506,Mental health treatment,,Mental health treatment    ,,,,,,,,,,,,,,,,,,,,Community Mental Health Center,"Adults, Seniors, Young Adults",October 2018,"https://maps.google.com/?q=1000 Alpine Avenue, Boulder, CO 80304",40.0252971,-105.2842364,0,,,False
71,-104.935574,39.735202,72,Mental Health Center of Denver,Recovery Center,4455 East 12th Avenue,,Denver,CO,80220,Denver,303-504-7000,http://www.mhcd.org,2017/02/27 11:25:37,Mental health treatment,,Mental health treatment    ,,,,,,,,,,,,,,,,,,,,Community Mental Health Center,"Adults, Seniors, Young Adults",October 2018,"https://maps.google.com/?q=4455 East 12th Avenue, Denver, CO 80220",39.735202,-104.935574,0,,,False
72,-104.8096139,39.7380944,73,Aurora Mental Health Center,Community Transitions Program,1390 Chambers Street,,Aurora,CO,80011,Arapahoe,303-617-2300,http://www.aumhc.org,2017/02/27 11:25:37,Mental health treatment,,Mental health treatment    ,,,,,,,,,,,,,,,,,,,,Community Mental Health Center,"Adults, Seniors, Young Adults",October 2018,"https://maps.google.com/?q=1390 Chambers Street, Aurora, CO 80011",39.7380944,-104.8096139,0,,,False
73,-105.115253,40.173794,74,Mental Health Partners,Wellness Education Center,834 Sherman Street,,Longmont,CO,80501,Boulder,303-443-8500,http://www.mhpcolorado.org,2017/02/27 11:25:37,Mental health treatment,,Mental health treatment    ,,,,,,,,,,,,,,,,,,,,Community Mental Health Center,"Adults, Seniors, Young Adults",October 2018,"https://maps.google.com/?q=834 Sherman Street, Longmont, CO 80501",40.173794,-105.115253,0,,,False
74,-105.1097298,40.4060635,75,SummitStone Health Partners,Loveland Branch,1250 North Wilson Avenue,,Loveland,CO,80537,Larimer,970-494-4200,http://www.summitstonehealth.org,2017/04/04 13:15:57,Mental health treatment,,Mental health treatment    ,,,,,,,,,,,,,,,,,,,,Community Mental Health Center,"Adults, Seniors, Young Adults",October 2018,"https://maps.google.com/?q=1250 North Wilson Avenue, Loveland, CO 80537",40.4060635,-105.1097298,0,,,False
75,-104.8423024,38.8248474,76,AspenPointe Health Services,Adult and Rural Services,875 West Moreno Avenue,,Colorado Springs,CO,80905,El Paso,719-572-6100,http://www.aspenpointe.org/,2018/03/27 09:36:18.120,Mental health treatment,,Mental health treatment    ,,,,,,,,,,,,,,,,,,,,Community Mental Health Center,"Adults, Seniors, Young Adults",October 2018,"https://maps.google.com/?q=875 West Moreno Avenue, Colorado Springs, CO 80905",38.8248474,-104.8423024,0,,,False
76,-105.0856826,40.585374,77,SummitStone Health Partners,,525 West Oak Street,,Fort Collins,CO,80521,Larimer,970-494-4200,http://summitstonehealth.org,2017/04/04 13:14:50,Mental health treatment,,Mental health treatment    ,,,,,,,,,,,,,,,,,,,,Community Mental Health Center,"Adults, Seniors, Young Adults",October 2018,"https://maps.google.com/?q=525 West Oak Street, Fort Collins, CO 80521",40.585374,-105.0856826,0,,,False
77,-104.6960204,40.4181289,78,North Range Behavioral Health,Adult Recovery Program (ARP),1306 11th Avenue,,Greeley,CO,80631,Weld,970-347-2120,http://www.northrange.org,2017/02/27 11:25:37,Mental health treatment,,Mental health treatment    ,,,,,,,,,,,,,,,,,,,,Community Mental Health Center,"Adults, Seniors, Young Adults",October 2018,"https://maps.google.com/?q=1306 11th Avenue, Greeley, CO 80631",40.4181289,-104.6960204,0,,,False
78,-105.3537811,39.6599097,79,Jefferson Center for Mental Health,Evergreen Mountain Office,31207 Keats Way,Suite 202,Evergreen,CO,80439,Jefferson,303-425-0300,http://,2018/05/01 15:47:42.111,Mental health treatment,,Mental health treatment    ,,,,,,,,,,,,,,,,,,,,Community Mental Health Center,"Adults, Children and Adolescents, Seniors, Young Adults",October 2018,"https://maps.google.com/?q=31207 Keats Way, Evergreen, CO 80439",39.6599097,-105.3537811,0,,,False
79,-106.00127,39.225048,80,AspenPointe,,295 5th Street,,Fairplay,CO,80440,Park,719-572-6100,http://,2017/02/27 11:25:37,Mental health treatment,,Mental health treatment    ,,,,,,,,,,,,,,,,,,,,Community Mental Health Center,"Adults, Children and Adolescents, Seniors, Young Adults",October 2018,"https://maps.google.com/?q=295 5th Street, Fairplay, CO 80440",39.225048,-106.00127,0,,,False
80,-105.9991581,39.2221794,81,Solvista Health,Lake County Branch Office,714 Front Street,,Leadville,CO,80461,Lake,719-486-0985,http://SolvistaHealth.org,2017/02/27 11:25:37,Mental health treatment,,Mental health treatment    ,,,,,,,,,,,,,,,,,,,,Community Mental Health Center,"Adults, Children and Adolescents, Seniors, Young Adults",October 2018,"https://maps.google.com/?q=714 Front Street, Leadville, CO 80461",39.2221794,-105.9991581,0,,,False
81,-106.385596,39.644141,82,Minds Springs Health,Outpatient Clinic/Vail,395 East Lionshead Circle,,Vail,CO,81657,Eagle,970-476-0930,http://mindspringshealth.org,2017/02/27 11:25:37,Mental health treatment,,Mental health treatment    ,,,,,,,,,,,,,,,,,,,,Community Mental Health Center,"Adults, Children and Adolescents, Seniors, Young Adults",October 2018,"https://maps.google.com/?q=395 East Lionshead Circle, Vail, CO 81657",39.644141,-106.385596,0,,,False
82,-105.934462,40.084472,83,Mind Springs Health,,480 East Agate Avenue,,Granby,CO,80446,Grand,970-887-2179,http://www.mindspringshealth.org,2017/02/27 11:25:37,Mental health treatment,,Mental health treatment    ,,,,,,,,,,,,,,,,,,,,Community Mental Health Center,"Adults, Children and Adolescents, Seniors, Young Adults",October 2018,"https://maps.google.com/?q=480 East Agate Avenue, Granby, CO 80446",40.084472,-105.934462,0,,,False
83,-105.025661,39.738323,84,Mental Health Center of Denver,Child and Family Outpatient Services,1405 North Federal Boulevard,,Denver,CO,80204,Denver,303-504-1500,http://www.mhcd.org,2017/02/27 11:25:37,Mental health treatment,,Mental health treatment    ,,,,,,,,,,,,,,,,,,,,Community Mental Health Center,"Adults, Children and Adolescents, Seniors, Young Adults",October 2018,"https://maps.google.com/?q=1405 North Federal Boulevard, Denver, CO 80204",39.738323,-105.025661,0,,,False
84,-105.0266063,39.8346187,85,Community Reach Center,Westminster Counseling Service,3031 West 76th Avenue,,Westminster,CO,80030,Adams,303-853-3500,http://www.communityreachcenter.org,2017/08/17 11:16:45.628,Mental health treatment,,Mental health treatment    ,,,,,,,,,,,,,,,,,,,,Community Mental Health Center,"Adults, Children and Adolescents, Seniors, Young Adults",October 2018,"https://maps.google.com/?q=3031 West 76th Avenue, Westminster, CO 80030",39.8346187,-105.0266063,0,,,False
85,-105.0917808,39.9274282,86,Mental Health Partners,,899 U.S. Highway 287,Suite 300,Broomfield,CO,80020,Broomfield,303-443-8500,http://www.mhpcolorado.org,2018/08/07 12:06:43.617,Mental health treatment,,Mental health treatment    ,,,,,,,,,,,,,,,,,,,,Community Mental Health Center,"Adults, Children and Adolescents, Seniors, Young Adults",October 2018,"https://maps.google.com/?q=899 U.S. Highway 287, Broomfield, CO 80020",39.9274282,-105.0917808,0,,,False
86,-104.9972154,39.8582756,87,Community Reach Center,,8931 Huron Street,,Denver,CO,80260,Adams,303-853-3500,http://www.communityreachcenter.org/,2017/08/17 11:16:34.511,Mental health treatment,,Mental health treatment    ,,,,,,,,,,,,,,,,,,,,Community Mental Health Center,"Adults, Children and Adolescents, Seniors, Young Adults",October 2018,"https://maps.google.com/?q=8931 Huron Street, Denver, CO 80260",39.8582756,-104.9972154,0,,,False
87,-104.997231,39.859109,88,Community Reach Center,Gateway Office,8989 Huron Street,,Denver,CO,80260,Adams,303-853-3500,http://www.communityreachcenter.org,2017/02/27 11:25:37,Mental health treatment,,Mental health treatment    ,,,,,,,,,,,,,,,,,,,,Community Mental Health Center,"Adults, Children and Adolescents, Seniors, Young Adults",October 2018,"https://maps.google.com/?q=8989 Huron Street, Denver, CO 80260",39.859109,-104.997231,0,,,False
88,-104.874742,39.5796249,89,AllHealth Network,,155 Inverness Drive West,,Englewood,CO,80112,Arapahoe,303-730-8858,http://www.admhn.org/,2018/07/10 10:34:26.853,Mental health treatment,,Mental health treatment    ,,,,,,,,,,,,,,,,,,,,Community Mental Health Center,"Adults, Children and Adolescents, Seniors, Young Adults",October 2018,"https://maps.google.com/?q=155 Inverness Drive West, Englewood, CO 80112",39.5796249,-104.874742,0,,,False
89,-104.986507,39.901139,90,Community Reach Center,Child/Family Services,11285 Highline Drive,,Denver,CO,80233,Adams,303-853-3500,http://,2017/02/27 11:25:37,Mental health treatment,,Mental health treatment    ,,,,,,,,,,,,,,,,,,,,Community Mental Health Center,"Adults, Children and Adolescents, Seniors, Young Adults",October 2018,"https://maps.google.com/?q=11285 Highline Drive, Denver, CO 80233",39.901139,-104.986507,0,,,False
90,-104.936932,39.827722,91,Community Reach Center,Commerce City Office,4371 East 72nd Avenue,,Commerce City,CO,80022,Adams,303-853-3500,http://www.communityreachcenter.org,2017/02/27 11:25:37,Mental health treatment,,Mental health treatment    ,,,,,,,,,,,,,,,,,,,,Community Mental Health Center,"Adults, Children and Adolescents, Seniors, Young Adults",October 2018,"https://maps.google.com/?q=4371 East 72nd Avenue, Commerce City, CO 80022",39.827722,-104.936932,0,,,False
91,-104.8594172,39.6637178,92,Aurora Mental Health Center,Adult and Early Childhood Outpt,11059 East Bethany Drive,Suite 200,Aurora,CO,80014,Arapahoe,303-617-2300,http://www.aumhc.org/,2018/03/27 09:32:14.311,Mental health treatment,,Mental health treatment    ,,,,,,,,,,,,,,,,,,,,Community Mental Health Center,"Adults, Children and Adolescents, Seniors, Young Adults",October 2018,"https://maps.google.com/?q=11059 East Bethany Drive, Aurora, CO 80014",39.6637178,-104.8594172,0,,,False
92,-104.8725071,39.7434052,93,Aurora Mental Health Center,Elmira Counseling and Refugee Ctr,1646 Elmira Street,,Aurora,CO,80010,Arapahoe,303-617-2300,http://www.aumhc.org,2018/05/29 15:31:46.080,Mental health treatment,,Mental health treatment    ,,,,,,,,,,,,,,,,,,,,Community Mental Health Center,"Adults, Children and Adolescents, Seniors, Young Adults",October 2018,"https://maps.google.com/?q=1646 Elmira Street, Aurora, CO 80010",39.7434052,-104.8725071,0,,,False
93,-104.8624739,39.3624522,94,AllHealth Network,Castle Rock Office,831 South Perry Street,,Castle Rock,CO,80104,Douglas,303-730-8858,http://www.admhn.org,2018/06/12 10:04:46.941,Mental health treatment,,Mental health treatment    ,,,,,,,,,,,,,,,,,,,,Community Mental Health Center,"Adults, Children and Adolescents, Seniors, Young Adults",October 2018,"https://maps.google.com/?q=831 South Perry Street, Castle Rock, CO 80104",39.3624522,-104.8624739,0,,,False
94,-104.8110807,39.7275706,95,Aurora Mental Health Center,Adult Intensive Services,791 Chambers Road,,Aurora,CO,80011,Arapahoe,303-617-2300,http://www.aumhc.org,2018/05/29 15:39:18.695,Mental health treatment,,Mental health treatment    ,,,,,,,,,,,,,,,,,,,,Community Mental Health Center,"Adults, Children and Adolescents, Seniors, Young Adults",October 2018,"https://maps.google.com/?q=791 Chambers Road, Aurora, CO 80011",39.7275706,-104.8110807,0,,,False
95,-104.7706275,39.527454,96,AllHealth Network,Parker Office,10350 Dransfeldt Road,,Parker,CO,80134,Douglas,303-730-8858,http://www.admhn.org,2017/02/27 11:25:37,Mental health treatment,,Mental health treatment    ,,,,,,,,,,,,,,,,,,,,Community Mental Health Center,"Adults, Children and Adolescents, Seniors, Young Adults",October 2018,"https://maps.google.com/?q=10350 Dransfeldt Road, Parker, CO 80134",39.527454,-104.7706275,0,,,False
96,-105.1041763,40.1686437,97,Mental Health Partners,,529 Coffman Street,Suite 300,Longmont,CO,80501,Boulder,303-443-8500,http://www.mhpcolorado.org,2017/08/15 10:00:36.549,Mental health treatment,,Mental health treatment    ,,,,,,,,,,,,,,,,,,,,Community Mental Health Center,"Adults, Children and Adolescents, Seniors, Young Adults",October 2018,"https://maps.google.com/?q=529 Coffman Street, Longmont, CO 80501",40.1686437,-105.1041763,0,,,False
97,-105.4890621,40.3886622,98,Summit Stone Health Partners,Estes Park Branch,1950 Redtail Hawk Drive,,Estes Park,CO,80517,Larimer,970-586-9105,http://,2018/02/05 12:02:30.109,Mental health treatment,,Mental health treatment    ,,,,,,,,,,,,,,,,,,,,Community Mental Health Center,"Adults, Children and Adolescents, Seniors, Young Adults",October 2018,"https://maps.google.com/?q=1950 Redtail Hawk Drive, Estes Park, CO 80517",40.3886622,-105.4890621,0,,,False
98,-104.80043,39.983091,99,Community Reach Center,Brighton Office,1850 East Egbert Street,,Brighton,CO,80601,Adams,303-853-3600,http://,2017/02/27 11:25:37,Mental health treatment,,Mental health treatment    ,,,,,,,,,,,,,,,,,,,,Community Mental Health Center,"Adults, Children and Adolescents, Seniors, Young Adults",October 2018,"https://maps.google.com/?q=1850 East Egbert Street, Brighton, CO 80601",39.983091,-104.80043,0,,,False
99,-104.596276,39.356926,100,Centennial Mental Health Center Inc,,650 East Walnut Street,,Elizabeth,CO,80107,Elbert,303-646-4519,http://www.centennialmhc.org,2017/02/27 11:25:37,Mental health treatment,,Mental health treatment    ,,,,,,,,,,,,,,,,,,,,Community Mental Health Center,"Adults, Children and Adolescents, Seniors, Young Adults",October 2018,"https://maps.google.com/?q=650 East Walnut Street, Elizabeth, CO 80107",39.356926,-104.596276,0,,,False
100,-106.015084,38.525758,101,Solvista Health,Chaffee County Branch Office,111 Vesta Road,,Salida,CO,81201,Chaffee,719-539-6502,http://www.solvistahealth.org,2017/02/27 11:25:37,Mental health treatment,,Mental health treatment    ,,,,,,,,,,,,,,,,,,,,Community Mental Health Center,"Adults, Children and Adolescents, Seniors, Young Adults",October 2018,"https://maps.google.com/?q=111 Vesta Road, Salida, CO 81201",38.525758,-106.015084,0,,,False
101,-104.7846843,38.8299526,102,AspenPointe,Acute Services/Lighthouse,115 South Parkside Drive,,Colorado Springs,CO,80910,El Paso,719-572-6100,http://www.aspenpointe.org,2018/02/23 10:46:34.081,Mental health treatment,,Mental health treatment    ,,,,,,,,,,,,,,,,,,,,Community Mental Health Center,"Adults, Children and Adolescents, Seniors, Young Adults",October 2018,"https://maps.google.com/?q=115 South Parkside Drive, Colorado Springs, CO 80910",38.8299526,-104.7846843,0,,,False
102,-105.1850708,38.4446895,103,Solvista Health,,3225 Independence Road,,Canon City,CO,81212,Fremont,719-275-2351,http://Solvistahealth.org,2017/02/27 11:25:37,Mental health treatment,,Mental health treatment    ,,,,,,,,,,,,,,,,,,,,Community Mental Health Center,"Adults, Children and Adolescents, Seniors, Young Adults",October 2018,"https://maps.google.com/?q=3225 Independence Road, Canon City, CO 81212",38.4446895,-105.1850708,0,,,False
103,-104.7055168,38.6921444,104,AspenPointe,Health Services,350 Lyckman Drive,,Fountain,CO,80817,El Paso,719-572-6100 x5073,http://www.aspenpointe.com/,2018/02/02 15:07:57.330,Mental health treatment,,Mental health treatment    ,,,,,,,,,,,,,,,,,,,,Community Mental Health Center,"Adults, Children and Adolescents, Seniors, Young Adults",October 2018,"https://maps.google.com/?q=350 Lyckman Drive, Fountain, CO 80817",38.6921444,-104.7055168,0,,,False
104,-104.6938732,40.4195199,105,North Range Behavioral Health,Crisis Support Services,928 12th Street,,Greeley,CO,80631,Weld,970-347-2120,http://www.northrange.org,2017/08/15 09:46:56.922,Mental health treatment,,Mental health treatment    ,,,,,,,,,,,,,,,,,,,,Community Mental Health Center,"Adults, Children and Adolescents, Seniors, Young Adults",October 2018,"https://maps.google.com/?q=928 12th Street, Greeley, CO 80631",40.4195199,-104.6938732,0,,,False
105,-104.6992858,40.449792,106,North Range Behavioral Health,Child/Family and Integrated Care,1300 North 17th Avenue,,Greeley,CO,80631,Weld,970-347-2120,http://www.northrange.org,2017/08/15 10:04:18.789,Mental health treatment,,Mental health treatment    ,,,,,,,,,,,,,,,,,,,,Community Mental Health Center,"Adults, Children and Adolescents, Seniors, Young Adults",October 2018,"https://maps.google.com/?q=1300 North 17th Avenue, Greeley, CO 80631",40.449792,-104.6992858,0,,,False
106,-106.826411,40.477312,107,Mind Springs Health ,Outpatient Clinic Steamboat Springs,407 South Lincoln Avenue,,Steamboat Springs,CO,80477,Routt,970-879-2141,http://www.mindspringshealth.org,2017/02/27 11:25:37,Mental health treatment,,Mental health treatment    ,,,,,,,,,,,,,,,,,,,,Community Mental Health Center,"Adults, Children and Adolescents, Seniors, Young Adults",October 2018,"https://maps.google.com/?q=407 South Lincoln Avenue, Steamboat Springs, CO 80477",40.477312,-106.826411,0,,,False
107,-106.283637,40.731643,108,Mind Springs Health,Outpatient Clinic/Jackson County,350 Mckinley Street,,Walden,CO,80480,Jackson,970-723-0055,http://,2017/02/27 11:25:37,Mental health treatment,,Mental health treatment    ,,,,,,,,,,,,,,,,,,,,Community Mental Health Center,"Adults, Children and Adolescents, Seniors, Young Adults",October 2018,"https://maps.google.com/?q=350 Mckinley Street, Walden, CO 80480",40.731643,-106.283637,0,,,False
108,-106.9240093,38.5515982,109,Midwestern Colorado MH Ctr,DBA The Center for Mental Health,710 North Taylor Street,,Gunnison,CO,81230,Gunnison,970-641-0229,http://www.centermh.org,2018/03/27 08:37:51.741,Mental health treatment,,Mental health treatment    ,,,,,,,,,,,,,,,,,,,,Community Mental Health Center,"Adults, Children and Adolescents, Seniors, Young Adults",October 2018,"https://maps.google.com/?q=710 North Taylor Street, Gunnison, CO 81230",38.5515982,-106.9240093,0,,,False
109,-103.684021,39.26305,110,Centennial Mental Health Center Inc,,606 Main Street,,Limon,CO,80828,Lincoln,719-775-2313,http://www.centennialmhc.org,2017/02/27 11:25:37,Mental health treatment,,Mental health treatment    ,,,,,,,,,,,,,,,,,,,,Community Mental Health Center,"Adults, Children and Adolescents, Seniors, Young Adults",October 2018,"https://maps.google.com/?q=606 Main Street, Limon, CO 80828",39.26305,-103.684021,0,,,False
110,-107.5483548,40.5136107,111,Outpatient Clinic/Craig,,439 Breeze Street,Suite 200,Craig,CO,81625,Moffat,970-824-6541,http://mindspringshealth.org,2017/04/04 13:13:55,Mental health treatment,,Mental health treatment    ,,,,,,,,,,,,,,,,,,,,Community Mental Health Center,"Adults, Children and Adolescents, Seniors, Young Adults",October 2018,"https://maps.google.com/?q=439 Breeze Street, Craig, CO 81625",40.5136107,-107.5483548,0,,,False
111,-103.7885223,40.2485455,112,Centennial Mental Health Center Inc,,821 East Railroad Avenue,,Fort Morgan,CO,80701,Morgan,970-867-4924,http://www.centennialmhc.org,2017/02/27 11:25:37,Mental health treatment,,Mental health treatment    ,,,,,,,,,,,,,,,,,,,,Community Mental Health Center,"Adults, Children and Adolescents, Seniors, Young Adults",October 2018,"https://maps.google.com/?q=821 East Railroad Avenue, Fort Morgan, CO 80701",40.2485455,-103.7885223,0,,,False
112,-106.108358,37.753818,113,SLV Behavioral Health Center Clinic,,260 Worth Street,,Center,CO,81125,Saguache,719-589-3671,http://www.slvbhg.org,2017/02/27 11:25:37,Mental health treatment,,Mental health treatment    ,,,,,,,,,,,,,,,,,,,,Community Mental Health Center,"Adults, Children and Adolescents, Seniors, Young Adults",October 2018,"https://maps.google.com/?q=260 Worth Street, Center, CO 81125",37.753818,-106.108358,0,,,False
113,-107.8595438,38.4821716,114,Midwestern Colorado MH Ctr,DBA The Center for Mental Health,605 East Miami Road,,Montrose,CO,81401,Montrose,970-249-9694,http://www.centermh.org,2018/03/27 08:38:17.861,Mental health treatment,,Mental health treatment    ,,,,,,,,,,,,,,,,,,,,Community Mental Health Center,"Adults, Children and Adolescents, Seniors, Young Adults",October 2018,"https://maps.google.com/?q=605 East Miami Road, Montrose, CO 81401",38.4821716,-107.8595438,0,,,False
114,-108.0710735,38.7327865,115,Midwestern Colorado MH Ctr,DBA The Center for Mental Health,107 West 11th Street,,Delta,CO,81416,Delta,970-874-8981,http://www.centermh.org,2018/03/26 16:05:37.871,Mental health treatment,,Mental health treatment    ,,,,,,,,,,,,,,,,,,,,Community Mental Health Center,"Adults, Children and Adolescents, Seniors, Young Adults",October 2018,"https://maps.google.com/?q=107 West 11th Street, Delta, CO 81416",38.7327865,-108.0710735,0,,,False
115,-106.153291,37.576153,116,San Luis Valley ,Behav Hlth Group/Monte Vista Clinic,402 4th Avenue,,Monte Vista,CO,81144,Rio Grande,719-589-3671,http://www.slvbhg.org,2017/02/27 11:25:37,Mental health treatment,,Mental health treatment    ,,,,,,,,,,,,,,,,,,,,Community Mental Health Center,"Adults, Children and Adolescents, Seniors, Young Adults",October 2018,"https://maps.google.com/?q=402 4th Avenue, Monte Vista, CO 81144",37.576153,-106.153291,0,,,False
116,-103.7551259,38.2145522,117,Southeast Health Group,Southeast Mental Health Services,220 East 1st Street,,Ordway,CO,81063,Crowley,719-384-5446,http://www.southeasthealthgroup.org,2017/02/27 11:25:37,Mental health treatment,,Mental health treatment    ,,,,,,,,,,,,,,,,,,,,Community Mental Health Center,"Adults, Children and Adolescents, Seniors, Young Adults",October 2018,"https://maps.google.com/?q=220 East 1st Street, Ordway, CO 81063",38.2145522,-103.7551259,0,,,False
117,-103.201567,40.159235,118,Centennial Mental Health Center Inc,,871 East 1st Street,,Akron,CO,80720,Washington,970-345-2254,http://www.centennialmhc.org,2017/02/27 11:25:37,Mental health treatment,,Mental health treatment    ,,,,,,,,,,,,,,,,,,,,Community Mental Health Center,"Adults, Children and Adolescents, Seniors, Young Adults",October 2018,"https://maps.google.com/?q=871 East 1st Street, Akron, CO 80720",40.159235,-103.201567,0,,,False
118,-105.883223,37.444309,119,San Luis Valley,Behavioral Health Group,8745 County Road 9 South,,Alamosa,CO,81101,Alamosa,719-589-3671,http://www.slvbhg.org,2017/02/27 11:25:37,Mental health treatment,,Mental health treatment    ,,,,,,,,,,,,,,,,,,,,Community Mental Health Center,"Adults, Children and Adolescents, Seniors, Young Adults",October 2018,"https://maps.google.com/?q=8745 County Road 9 South, Alamosa, CO 81101",37.444309,-105.883223,0,,,False
119,-103.7183915,38.0542984,120,Southeast Health Group,Southeast Mental Health Services,404 North Main Street,,Rocky Ford,CO,81067,Otero,719-384-5446,http://www.southeasthealthgroup.org,2018/08/07 12:07:06.706,Mental health treatment,,Mental health treatment    ,,,,,,,,,,,,,,,,,,,,Community Mental Health Center,"Adults, Children and Adolescents, Seniors, Young Adults",October 2018,"https://maps.google.com/?q=404 North Main Street, Rocky Ford, CO 81067",38.0542984,-103.7183915,0,,,False
120,-103.213791,40.625196,121,Centennial Mental Health Center Inc,,211 West Main Street,,Sterling,CO,80751,Logan,970-522-4549,http://www.centennialmhc.org/,2017/02/27 11:25:37,Mental health treatment,,Mental health treatment    ,,,,,,,,,,,,,,,,,,,,Community Mental Health Center,"Adults, Children and Adolescents, Seniors, Young Adults",October 2018,"https://maps.google.com/?q=211 West Main Street, Sterling, CO 80751",40.625196,-103.213791,0,,,False
121,-107.8111599,37.9372344,122,Midwestern Colorado MH Ctr,DBA The Center for Mental Health,100 West Colorado Avenue,Suites 203-204,Telluride,CO,81435,San Miguel,970-728-6303,http://www.centermh.org,2018/03/27 08:38:09.754,Mental health treatment,,Mental health treatment    ,,,,,,,,,,,,,,,,,,,,Community Mental Health Center,"Adults, Children and Adolescents, Seniors, Young Adults",October 2018,"https://maps.google.com/?q=100 West Colorado Avenue, Telluride, CO 81435",37.9372344,-107.8111599,0,,,False
122,-105.9592743,37.2738753,123,San Luis Valley,Behavioral Health La Jara Clinic,322 Walnut Street,,La Jara,CO,81140,Conejos,719-589-3671,http://www.slvbhg.org,2017/02/27 11:25:37,Mental health treatment,,Mental health treatment    ,,,,,,,,,,,,,,,,,,,,Community Mental Health Center,"Adults, Children and Adolescents, Seniors, Young Adults",October 2018,"https://maps.google.com/?q=322 Walnut Street, La Jara, CO 81140",37.2738753,-105.9592743,0,,,False
123,-103.5542852,37.9804261,124,Southeast Health Group,Southeast Mental Health Services,711 Barnes Avenue,,La Junta,CO,81050,Otero,719-384-5446,http://www.southeasthealthgroup.org,2017/02/27 11:25:37,Mental health treatment,,Mental health treatment    ,,,,,,,,,,,,,,,,,,,,Community Mental Health Center,"Adults, Children and Adolescents, Seniors, Young Adults",October 2018,"https://maps.google.com/?q=711 Barnes Avenue, La Junta, CO 81050",37.9804261,-103.5542852,0,,,False
124,-105.4229502,37.1997922,125,San Luis Valley ,Behavioral Health San Luis Clinic,409 Trinchera Street,,San Luis,CO,81152,Costilla,719-589-3671,http://www.slvbhg.org,2017/02/27 11:25:37,Mental health treatment,,Mental health treatment    ,,,,,,,,,,,,,,,,,,,,Community Mental Health Center,"Adults, Children and Adolescents, Seniors, Young Adults",October 2018,"https://maps.google.com/?q=409 Trinchera Street, San Luis, CO 81152",37.1997922,-105.4229502,0,,,False
125,-102.725177,40.124158,126,Centennial Mental Health Center Inc,,215 South Ash Street,,Yuma,CO,80759,Yuma,970-848-5412,http://www.centennialmhc.org,2017/02/27 11:25:37,Mental health treatment,,Mental health treatment    ,,,,,,,,,,,,,,,,,,,,Community Mental Health Center,"Adults, Children and Adolescents, Seniors, Young Adults",October 2018,"https://maps.google.com/?q=215 South Ash Street, Yuma, CO 80759",40.124158,-102.725177,0,,,False
126,-106.0151964,37.08002056,127,San Luis Valley ,Behavioral Health Antonito Clinic,9th and Dahlia Street,,Antonito,CO,81120,Conejos,719-589-3671,http://www.slvbhg.org,2017/02/27 11:25:37,Mental health treatment,,Mental health treatment    ,,,,,,,,,,,,,,,,,,,,Community Mental Health Center,"Adults, Children and Adolescents, Seniors, Young Adults",October 2018,"https://maps.google.com/?q=9th and Dahlia Street, Antonito, CO 81120",37.08002056,-106.0151964,0,,,False
127,-103.2178428,38.0664178,128,Southeast Health Group,Southeast Mental Health Services,138 6th Street,,Las Animas,CO,81054,Bent,800-511-5446,http://www.southeasthealthgroup.org,2018/08/07 12:07:00.546,Mental health treatment,,Mental health treatment    ,,,,,,,,,,,,,,,,,,,,Community Mental Health Center,"Adults, Children and Adolescents, Seniors, Young Adults",October 2018,"https://maps.google.com/?q=138 6th Street, Las Animas, CO 81054",38.0664178,-103.2178428,0,,,False
128,-107.0789173,37.256512,129,Archuleta Integrated Healthcare,Axis Health System,52 Village Drive,,Pagosa Springs,CO,81147,Archuleta,970-264-2104,http://www.axishealthsystem.org,2017/12/08 15:08:52.409,Mental health treatment,,Mental health treatment    ,,,,,,,,,,,,,,,,,,,,Community Mental Health Center,"Adults, Children and Adolescents, Seniors, Young Adults",October 2018,"https://maps.google.com/?q=52 Village Drive, Pagosa Springs, CO 81147",37.256512,-107.0789173,0,,,False
129,-108.3801314,37.9811237,130,Midwestern Colorado MH Ctr,DBA The Center for Mental Health,1175 Grand Avenue,,Norwood,CO,81423,San Miguel,970-327-4449,http://www.centermh.org,2018/03/27 08:38:00.622,Mental health treatment,,Mental health treatment    ,,,,,,,,,,,,,,,,,,,,Community Mental Health Center,"Adults, Children and Adolescents, Seniors, Young Adults",October 2018,"https://maps.google.com/?q=1175 Grand Avenue, Norwood, CO 81423",37.9811237,-108.3801314,0,,,False
130,-104.4910804,37.1686297,131,Health Solutions,Trinidad Office,417 South Indiana Avenue,,Trinidad,CO,81082,Las Animas,719-846-4416,http://www.health.solutions,2017/08/15 10:07:50.514,Mental health treatment,,Mental health treatment    ,,,,,,,,,,,,,,,,,,,,Community Mental Health Center,"Adults, Children and Adolescents, Seniors, Young Adults",October 2018,"https://maps.google.com/?q=417 South Indiana Avenue, Trinidad, CO 81082",37.1686297,-104.4910804,0,,,False
131,-102.266837,39.311473,132,Centennial Mental Health Center Inc,,1251 Circle Drive,,Burlington,CO,80807,Kit Carson,719-346-8183,http://www.centennialmhc.org,2017/02/27 11:25:37,Mental health treatment,,Mental health treatment    ,,,,,,,,,,,,,,,,,,,,Community Mental Health Center,"Adults, Children and Adolescents, Seniors, Young Adults",October 2018,"https://maps.google.com/?q=1251 Circle Drive, Burlington, CO 80807",39.311473,-102.266837,0,,,False
132,-102.34896,38.821559,133,Centennial Mental Health Center Inc,,80 East 1st Street,,Cheyenne Wells,CO,80810,Cheyenne,719-346-8183,http://www.centennialmhc.org,2017/02/27 11:25:37,Mental health treatment,,Mental health treatment    ,,,,,,,,,,,,,,,,,,,,Community Mental Health Center,"Adults, Children and Adolescents, Seniors, Young Adults",October 2018,"https://maps.google.com/?q=80 East 1st Street, Cheyenne Wells, CO 80810",38.821559,-102.34896,0,,,False
133,-102.2244814,40.0797494,134,Centennial Mental Health Center Inc,,365 West Second Street,,Wray,CO,80758,Yuma,970-332-3133,http://www.centennialmhc.org,2017/08/18 08:50:25.978,Mental health treatment,,Mental health treatment    ,,,,,,,,,,,,,,,,,,,,Community Mental Health Center,"Adults, Children and Adolescents, Seniors, Young Adults",October 2018,"https://maps.google.com/?q=365 West Second Street, Wray, CO 80758",40.0797494,-102.2244814,0,,,False
134,-107.8776862,37.2422761,135,Axis Health System,Columbine Behavioral Healthcare,281 Sawyer Drive,Suite 100,Durango,CO,81303,La Plata,970-259-2162,http://www.axishealthsystem.org,2018/08/07 12:06:30.861,Mental health treatment,,Mental health treatment    ,,,,,,,,,,,,,,,,,,,,Community Mental Health Center,"Adults, Children and Adolescents, Seniors, Young Adults",October 2018,"https://maps.google.com/?q=281 Sawyer Drive, Durango, CO 81303",37.2422761,-107.8776862,0,,,False
135,-102.300819,40.585739,136,Centennial Mental Health Center Inc,,115 North Campbell Street,,Holyoke,CO,80734,Phillips,970-854-2114,http://www.centennialmhc.org,2017/02/27 11:25:37,Mental health treatment,,Mental health treatment    ,,,,,,,,,,,,,,,,,,,,Community Mental Health Center,"Adults, Children and Adolescents, Seniors, Young Adults",October 2018,"https://maps.google.com/?q=115 North Campbell Street, Holyoke, CO 80734",40.585739,-102.300819,0,,,False
136,-102.6118885,38.0682433,137,Southeast Health Group,Southeast Mental Health Services,100 Kendall Drive,,Lamar,CO,81052,Prowers,800-511-5446,http://www.southeasthealthgroup.org,2017/02/27 11:25:37,Mental health treatment,,Mental health treatment    ,,,,,,,,,,,,,,,,,,,,Community Mental Health Center,"Adults, Children and Adolescents, Seniors, Young Adults",October 2018,"https://maps.google.com/?q=100 Kendall Drive, Lamar, CO 81052",38.0682433,-102.6118885,0,,,False
137,-102.26415,40.988099,138,Centennial Mental Health Center Inc,,118 West 3rd Street,,Julesburg,CO,80737,Sedgwick,970-474-3769,http://www.centennialmhc.org,2017/02/27 11:25:37,Mental health treatment,,Mental health treatment    ,,,,,,,,,,,,,,,,,,,,Community Mental Health Center,"Adults, Children and Adolescents, Seniors, Young Adults",October 2018,"https://maps.google.com/?q=118 West 3rd Street, Julesburg, CO 80737",40.988099,-102.26415,0,,,False
138,-108.5765821,37.3557404,139,Cortez Integrated Healthcare,,691 East Empire,,Cortez,CO,81321,Montezuma,970-565-7946,http://www.axishealthsystem.org,2017/02/27 11:25:37,Mental health treatment,,Mental health treatment    ,,,,,,,,,,,,,,,,,,,,Community Mental Health Center,"Adults, Children and Adolescents, Seniors, Young Adults",October 2018,"https://maps.google.com/?q=691 East Empire, Cortez, CO 81321",37.3557404,-108.5765821,0,,,False
139,-102.6145282,37.4041019,140,Southeast Health Group at SECO Hosp,Southeast Mental Health Services,210 East 10th Street,,Springfield,CO,81073,Baca,800-511-5446,http://www.southeasthealthgroup.org,2017/02/27 11:25:37,Mental health treatment,,Mental health treatment    ,,,,,,,,,,,,,,,,,,,,Community Mental Health Center,"Adults, Children and Adolescents, Seniors, Young Adults",October 2018,"https://maps.google.com/?q=210 East 10th Street, Springfield, CO 81073",37.4041019,-102.6145282,0,,,False
140,-103.1428104,38.0848809,141,Colorado Coalition for the Homeless,,30999 County Road 15,,Las Animas,CO,81054,Bent,719-662-1100,http://www.colordocolition.org,2018/08/16 13:46:57.983,Transitional housing or halfway house,,,,Transitional housing or halfway house,,,,,,,,,,,,,,,,,,,,October 2018,"https://maps.google.com/?q=30999 County Road 15, Las Animas, CO 81054",38.0848809,-103.1428104,0,,,False
141,-104.8309689,39.7446155,142,Eastern Colorado Healthcare System,Rocky Mountain Regional VAMC,1700 North Wheeling Street,,Aurora,CO,80045,Adams,303-399-8020,http://www.1.va.gov/directory/guide/facility.asp?ID,2018/10/16 10:50:18.013,Mental health treatment,,Mental health treatment    ,,,,,,,,,,,,,,,,,,,,,"Adults, Seniors, Young Adults",October 2018,"https://maps.google.com/?q=1700 North Wheeling Street, Aurora, CO 80045",39.7446155,-104.8309689,0,,,False
142,-104.8443589,38.8751895,143,VA Eastern Colorado Healthcare System,PFC Floyd K Lindstrom CBOC,3141 Centennial Boulevard,,Colorado Springs,CO,80907,El Paso,719-327-5660,http://www.denver.va.gov,2018/10/16 10:48:54.626,Mental health treatment,,Mental health treatment    ,,,,,,,,,,,,,,,,,,,,,"Adults, Seniors, Young Adults",October 2018,"https://maps.google.com/?q=3141 Centennial Boulevard, Colorado Springs, CO 80907",38.8751895,-104.8443589,0,,,False
143,-105.087846,40.5537903,144,Cheyenne VA Medical Center,Fort Collins Comm Based OP Clinic,2509 Research Boulevard,,Fort Collins,CO,80526,Larimer,970-224-1550,http://www.cheyenne.va.gov,2018/06/25 11:18:51.496,Mental health treatment,,Mental health treatment    ,,,,,,,,,,,,,,,,,,,,,"Adults, Seniors, Young Adults",October 2018,"https://maps.google.com/?q=2509 Research Boulevard, Fort Collins, CO 80526",40.5537903,-105.087846,0,,,False
144,-107.325369,39.5287466,145,Glenwood VA Clinic,,2425 South Grand Avenue,Suite 101,Glenwood Springs,CO,81601,Garfield,970-945-1007,https://www.grandjunction.va.gov/locations/GlenwoodSprings.asp,2018/02/02 15:07:15.324,Mental health treatment,,Mental health treatment    ,,,,,,,,,,,,,,,,,,,,,"Adults, Seniors, Young Adults",October 2018,"https://maps.google.com/?q=2425 South Grand Avenue, Glenwood Springs, CO 81601",39.5287466,-107.325369,0,,,False
145,-104.6193578,38.3229481,146,VA Eastern CO HCS Denver VAMC,Pueblo Outpatient VA Clinc,4776 Eagleridge Circle,,Pueblo,CO,81008,Pueblo,719-553-1000,http://,2018/03/27 09:43:04.717,Mental health treatment,,Mental health treatment    ,,,,,,,,,,,,,,,,,,,,,"Adults, Seniors, Young Adults",October 2018,"https://maps.google.com/?q=4776 Eagleridge Circle, Pueblo, CO 81008",38.3229481,-104.6193578,0,,,False
146,-107.871539,38.4701099,147,Montrose CBOC,,154 Colorado Avenue,,Montrose,CO,81401,Montrose,970-249-7791,http://,2017/02/27 11:25:37,Mental health treatment,,Mental health treatment    ,,,,,,,,,,,,,,,,,,,,,"Adults, Seniors, Young Adults",October 2018,"https://maps.google.com/?q=154 Colorado Avenue, Montrose, CO 81401",38.4701099,-107.871539,0,,,False
147,-108.541018,39.076286,148,Grand Junction VAMC,Psychiatry Service (116A),2121 North Avenue,,Grand Junction,CO,81501,Mesa,970-242-0731,http://vaww.visn19.med.va.gov/facility.aspxid3,2018/03/07 17:06:56.977,Mental health treatment,,Mental health treatment    ,,,,,,,,,,,,,,,,,,,,,"Adults, Seniors, Young Adults",October 2018,"https://maps.google.com/?q=2121 North Avenue, Grand Junction, CO 81501",39.076286,-108.541018,0,,,False
148,-103.5488178,37.9788037,149,VA Eastern CO HCS Denver VAMC,La Junta CBOC,1100 Carson Avenue,Suite 104,La Junta,CO,81050,Otero,719-383-5195,http://,2018/03/27 09:41:50.366,Mental health treatment,,Mental health treatment    ,,,,,,,,,,,,,,,,,,,,,"Adults, Seniors, Young Adults",October 2018,"https://maps.google.com/?q=1100 Carson Avenue, La Junta, CO 81050",37.9788037,-103.5488178,0,,,False
149,-104.8691387,39.7405444,150,Aurora Mental Health Center,Child and Family Services North,1504 Galena Street,,Aurora,CO,80010,Arapahoe,303-617-2300,http://www.aumhc.org,2017/02/27 11:25:37,Mental health treatment,,Mental health treatment    ,,,,,,,,,,,,,,,,,,,,Community Mental Health Center,Children and Adolescents,October 2018,"https://maps.google.com/?q=1504 Galena Street, Aurora, CO 80010",39.7405444,-104.8691387,0,,,False
150,-106.1223965,38.8305678,151,West Central Mental Health Center,,28374 County Road 317,,Buena Vista,CO,81211,Chaffee,719-539-6502,http://SolvistaHealth.org/,2018/03/07 12:04:24.244,Substance abuse treatment ,,,Substance abuse treatment  ,,Does not treat opioid addiction,,,,,,,,,,,,,,,,Does not treat opioid addiction,General Hospital,"Adults, Children and Adolescents, Young Adults",October 2018,"https://maps.google.com/?q=28374 County Road 317, Buena Vista, CO 81211",38.8305678,-106.1223965,0,,,False
151,-104.8417519,39.597223,152,Restore Program,,6551 South Revere Parkway,Suite 275,Englewood,CO,80111,Arapahoe,303-792-3777,http://,2017/08/22 14:28:12.041,Substance abuse treatment ,,,Substance abuse treatment  ,,Does not treat opioid addiction,,,,,,,,,,,,,,,,Does not treat opioid addiction,,Children and Adolescents,October 2018,"https://maps.google.com/?q=6551 South Revere Parkway, Englewood, CO 80111",39.597223,-104.8417519,0,,,False
152,-105.075611,40.422976,153,SummitStone Health Partners,,221 East 29th Street,Suite 101,Loveland,CO,80538,Larimer,970-494-4200,http://,2017/08/22 14:15:02.357,Substance abuse treatment ,,,Substance abuse treatment  ,,Does not treat opioid addiction,,,,,,,,,,,,,,,,Does not treat opioid addiction,,Children and Adolescents,October 2018,"https://maps.google.com/?q=221 East 29th Street, Loveland, CO 80538",40.422976,-105.075611,0,,,False
153,-105.3084079,39.5175881,154,Serenity Education and Therapy,Serenity Education and Ther/Conifer,11030 Kitty Drive,Unit 5,Conifer,CO,80433,Jefferson,303-838-3633,http://www.serenityeducation.com,2018/03/26 16:02:50.871,Substance abuse treatment ,,,Substance abuse treatment  ,,Does not treat opioid addiction,,,,,,,,,,,,,,,,Does not treat opioid addiction,,"Adults, Young Adults",October 2018,"https://maps.google.com/?q=11030 Kitty Drive, Conifer, CO 80433",39.5175881,-105.3084079,0,,,False
154,-105.2437,39.7164,155,Dove Counseling Inc,,607 10th Street,Suite 103,Golden,CO,80401,Jefferson,303-216-9873,http://,2017/02/01 17:30:00,Substance abuse treatment ,,,Substance abuse treatment  ,,Does not treat opioid addiction,,,,,,,,,,,,,,,,Does not treat opioid addiction,,"Adults, Young Adults",October 2018,"https://maps.google.com/?q=607 10th Street, Golden, CO 80401",39.7164,-105.2437,0,,,False
155,-105.0819582,39.673809,156,Serenity Education and Therapy,,2525 South Wadsworth Boulevard,Suite 106,Denver,CO,80227,Jefferson,303-984-0590,http://www.serenityeducation.com,2017/02/01 17:30:00,Substance abuse treatment ,,,Substance abuse treatment  ,,Does not treat opioid addiction,,,,,,,,,,,,,,,,Does not treat opioid addiction,,"Adults, Young Adults",October 2018,"https://maps.google.com/?q=2525 South Wadsworth Boulevard, Denver, CO 80227",39.673809,-105.0819582,0,,,False
156,-105.119824,39.77784,157,Odyssey Counseling,,10900 West 44th Avenue,Unit 140,Wheat Ridge,CO,80033,Jefferson,303-420-7898,http://www.odysseycounseling.com,2017/02/01 17:30:00,Substance abuse treatment ,,,Substance abuse treatment  ,,Does not treat opioid addiction,,,,,,,,,,,,,,,,Does not treat opioid addiction,,"Adults, Young Adults",October 2018,"https://maps.google.com/?q=10900 West 44th Avenue, Wheat Ridge, CO 80033",39.77784,-105.119824,0,,,False
157,-105.0817341,39.7467523,158,Alternative Behaviors Counseling Inc,,1949 Wadsworth Boulevard,Suite 206,Denver,CO,80214,Jefferson,303-237-3599,http://www.abcounselingnorth.com,2018/02/01 14:20:26.975,Substance abuse treatment ,,,Substance abuse treatment  ,,Does not treat opioid addiction,,,,,,,,,,,,,,,,Does not treat opioid addiction,,"Adults, Young Adults",October 2018,"https://maps.google.com/?q=1949 Wadsworth Boulevard, Denver, CO 80214",39.7467523,-105.0817341,0,,,False
158,-105.0824567,39.7487897,159,BI Inc,BI Day Reporting Center Colorado,2099 Wadsworth Boulevard,,Denver,CO,80214,Jefferson,303-238-5755,http://www.georeentry.com/,2018/03/07 12:27:03.272,Substance abuse treatment ,,,Substance abuse treatment  ,,Does not treat opioid addiction,,,,,,,,,,,,,,,,Does not treat opioid addiction,,"Adults, Young Adults",October 2018,"https://maps.google.com/?q=2099 Wadsworth Boulevard, Denver, CO 80214",39.7487897,-105.0824567,0,,,False
159,-105.0609015,39.7689607,160,Beyond Education Supportive Trt,(BEST),5800 West 38th Avenue,Suite 5830,Denver,CO,80212,Denver,720-542-9524,http://bestduidenver.com,2018/06/05 09:49:40.302,Substance abuse treatment ,,,Substance abuse treatment  ,,Does not treat opioid addiction,,,,,,,,,,,,,,,,Does not treat opioid addiction,,"Adults, Young Adults",October 2018,"https://maps.google.com/?q=5800 West 38th Avenue, Denver, CO 80212",39.7689607,-105.0609015,0,,,False
160,-105.0324770563,39.7213510238973,161,Special Services Clinic Inc,,301 Knox Court,,Denver,CO,80219,Denver,303-937-1333,http://,2017/02/01 17:30:00,Substance abuse treatment ,,,Substance abuse treatment  ,,Does not treat opioid addiction,,,,,,,,,,,,,,,,Does not treat opioid addiction,,"Adults, Young Adults",October 2018,"https://maps.google.com/?q=301 Knox Court, Denver, CO 80219",39.7213510238973,-105.0324770563,0,,,False
161,-104.9891779,39.5829601,162,Genesis Counseling of the Rockies LLC,,8 West Dry Creek Circle,Suite 100,Littleton,CO,80120,Arapahoe,303-798-6464,http://www.genesis-counseling.com,2018/08/16 13:48:50.286,Substance abuse treatment ,,,Substance abuse treatment  ,,Does not treat opioid addiction,,,,,,,,,,,,,,,,Does not treat opioid addiction,,"Adults, Young Adults",October 2018,"https://maps.google.com/?q=8 West Dry Creek Circle, Littleton, CO 80120",39.5829601,-104.9891779,0,,,False
162,-105.2643437,40.0175893,163,Personal Growth Services,,2305 Canyon Boulevard,Suite 205,Boulder,CO,80302,Boulder,303-442-7220,http://drrobertmcintyre.com/drinking_driving.htm ,2018/08/14 07:37:51.065,Substance abuse treatment ,,,Substance abuse treatment  ,,Does not treat opioid addiction,,,,,,,,,,,,,,,,Does not treat opioid addiction,,"Adults, Young Adults",October 2018,"https://maps.google.com/?q=2305 Canyon Boulevard, Boulder, CO 80302",40.0175893,-105.2643437,0,,,False
163,-104.988242,39.636579,164,Special Services Clinic Inc,,4401 South Broadway,Unit 203,Denver,CO,80219,Denver,303-781-4999,http://,2018/07/16 10:54:04.070,Substance abuse treatment ,,,Substance abuse treatment  ,,Does not treat opioid addiction,,,,,,,,,,,,,,,,Does not treat opioid addiction,,"Adults, Young Adults",October 2018,"https://maps.google.com/?q=4401 South Broadway, Denver, CO 80219",39.636579,-104.988242,0,,,False
164,-105.25955,40.0255876,165,SAGE Training and Outpatient Institute,,2737 Napleton Avenue,Suite 101,Boulder,CO,80304,Boulder,303-443-3920,http://www.sagetraining.com,2018/08/30 09:21:43.620,Substance abuse treatment ,,,Substance abuse treatment  ,,Does not treat opioid addiction,,,,,,,,,,,,,,,,Does not treat opioid addiction,,"Adults, Young Adults",October 2018,"https://maps.google.com/?q=2737 Napleton Avenue, Boulder, CO 80304",40.0255876,-105.25955,0,,,False
165,-104.9878253,39.672547,166,Independence House South Side,,2425 South Broadway,,Denver,CO,80210,Denver,303-727-8881,http://www.ind-house.com,2017/12/01 12:39:08.170,Substance abuse treatment ,,,Substance abuse treatment  ,,Does not treat opioid addiction,,,,,,,,,,,,,,,,Does not treat opioid addiction,,"Adults, Young Adults",October 2018,"https://maps.google.com/?q=2425 South Broadway, Denver, CO 80210",39.672547,-104.9878253,0,,,False
166,-104.9918709,39.7404382,167,BI Inc,Denver Day Reporting Center,1359 Court Place,,Denver,CO,80204,Denver,303-832-1144,http://www.geogroup.com/,2018/03/07 12:26:56.614,Substance abuse treatment ,,,Substance abuse treatment  ,,Does not treat opioid addiction,,,,,,,,,,,,,,,,Does not treat opioid addiction,,"Adults, Young Adults",October 2018,"https://maps.google.com/?q=1359 Court Place, Denver, CO 80204",39.7404382,-104.9918709,0,,,False
167,-105.0303572,39.8269715,168,Set Apart Treatment Inc,,3380 West 72nd Avenue,,Westminster,CO,80030,Adams,303-426-4459,http://www.setaparttreatment.com,2017/08/17 15:01:50.314,Substance abuse treatment ,,,Substance abuse treatment  ,,Does not treat opioid addiction,,,,,,,,,,,,,,,,Does not treat opioid addiction,,"Adults, Young Adults",October 2018,"https://maps.google.com/?q=3380 West 72nd Avenue, Westminster, CO 80030",39.8269715,-105.0303572,0,,,False
168,-104.9737735,39.7578011,169,Healing Lifes Pains,,3022 Welton Street,,Denver,CO,80205,Denver,720-275-3383,http://www.healinglifespains.com,2018/05/07 13:10:11.813,Substance abuse treatment ,,,Substance abuse treatment  ,,Does not treat opioid addiction,,,,,,,,,,,,,,,,Does not treat opioid addiction,,"Adults, Young Adults",October 2018,"https://maps.google.com/?q=3022 Welton Street, Denver, CO 80205",39.7578011,-104.9737735,0,,,False
169,-105.007377,39.828878,170,Action Substance Abuse Recovery,,7290 Samuel Drive,Suite 130,Denver,CO,80221,Adams,303-429-7144,http://www.actionfoundation.net,2017/02/01 17:30:00,Substance abuse treatment ,,,Substance abuse treatment  ,,Does not treat opioid addiction,,,,,,,,,,,,,,,,Does not treat opioid addiction,,"Adults, Young Adults",October 2018,"https://maps.google.com/?q=7290 Samuel Drive, Denver, CO 80221",39.828878,-105.007377,0,,,False
170,-104.9391135,39.6863018,171,Treatment Centers XL,,1660 South Albion Street,Suite 420,Denver,CO,80222,Denver,303-782-0599,http://,2018/08/16 13:51:25.834,Substance abuse treatment ,,,Substance abuse treatment  ,,Does not treat opioid addiction,,,,,,,,,,,,,,,,Does not treat opioid addiction,,"Adults, Young Adults",October 2018,"https://maps.google.com/?q=1660 South Albion Street, Denver, CO 80222",39.6863018,-104.9391135,0,,,False
171,-104.8860086,39.6874174,172,Alcohol Behavior Information,,1602 South Parker Road,Suite 110,Denver,CO,80231,Denver,303-368-8702,http://www.abicolorado.org,2018/03/09 14:40:36.008,Substance abuse treatment ,,,Substance abuse treatment  ,,Does not treat opioid addiction,,,,,,,,,,,,,,,,Does not treat opioid addiction,,"Adults, Young Adults",October 2018,"https://maps.google.com/?q=1602 South Parker Road, Denver, CO 80231",39.6874174,-104.8860086,0,,,False
172,-104.912138,39.77754,173,A New Image Counseling Servs LLC,,6500 Stapleton Drive South,Suite E,Denver,CO,80216,Arapahoe,720-941-6224,http://,2018/03/27 08:56:16.043,Substance abuse treatment ,,,Substance abuse treatment  ,,Does not treat opioid addiction,,,,,,,,,,,,,,,,Does not treat opioid addiction,,"Adults, Young Adults",October 2018,"https://maps.google.com/?q=6500 Stapleton Drive South, Denver, CO 80216",39.77754,-104.912138,0,,,False
173,-104.9800596,39.9029146,174,BI Inc,Northglenn Day Reporting Center,506 Malley Drive,,Denver,CO,80233,Adams,303-457-9576,http://www.geogroup.com/,2018/03/07 12:04:08.262,Substance abuse treatment ,,,Substance abuse treatment  ,,Does not treat opioid addiction,,,,,,,,,,,,,,,,Does not treat opioid addiction,,"Adults, Young Adults",October 2018,"https://maps.google.com/?q=506 Malley Drive, Denver, CO 80233",39.9029146,-104.9800596,0,,,False
174,-104.91428,39.826901,175,La Trenza Counseling Inc,,6332 East 72nd Avenue,,Commerce City,CO,80022,Adams,303-287-4106,http://WWW.LATRENZACOUNSELING.NET,2017/02/01 17:30:00,Substance abuse treatment ,,,Substance abuse treatment  ,,Does not treat opioid addiction,,,,,,,,,,,,,,,,Does not treat opioid addiction,,"Adults, Young Adults",October 2018,"https://maps.google.com/?q=6332 East 72nd Avenue, Commerce City, CO 80022",39.826901,-104.91428,0,,,False
175,-104.8310514,39.6765847,176,Saddle Rock Counseling,,2260 South Xanadu Way,Suite 270,Aurora,CO,80014,Arapahoe,303-400-3172,http://www.srcounseling.com,2017/02/01 17:30:00,Substance abuse treatment ,,,Substance abuse treatment  ,,Does not treat opioid addiction,,,,,,,,,,,,,,,,Does not treat opioid addiction,,"Adults, Young Adults",October 2018,"https://maps.google.com/?q=2260 South Xanadu Way, Aurora, CO 80014",39.6765847,-104.8310514,0,,,False
176,-104.814142,39.653802,177,Action Substance Abuse Recovery,,14901 East Hampden Avenue,Suite 270,Aurora,CO,80014,Arapahoe,303-693-5080,http://www.actionfoundation.net,2017/02/01 17:30:00,Substance abuse treatment ,,,Substance abuse treatment  ,,Does not treat opioid addiction,,,,,,,,,,,,,,,,Does not treat opioid addiction,,"Adults, Young Adults",October 2018,"https://maps.google.com/?q=14901 East Hampden Avenue, Aurora, CO 80014",39.653802,-104.814142,0,,,False
177,-104.8110351,39.6545899,178,Alcohol Behavior Information,(ABI),15200 East Girard Avenue,Suite 1700,Aurora,CO,80014,Arapahoe,303-766-1120,http://dui-classes-denver-alcohol-behavior.business.site,2018/03/07 12:04:38.224,Substance abuse treatment ,,,Substance abuse treatment  ,,Does not treat opioid addiction,,,,,,,,,,,,,,,,Does not treat opioid addiction,,"Adults, Young Adults",October 2018,"https://maps.google.com/?q=15200 East Girard Avenue, Aurora, CO 80014",39.6545899,-104.8110351,0,,,False
178,-104.8111263,39.7250819,179,BI Inc,BI Day Reporting Center Colorado,15290 East 6th Avenue,Suite 160,Aurora,CO,80011,Arapahoe,303-699-8181,http://www.geogroup.com/,2018/03/07 12:04:09.201,Substance abuse treatment ,,,Substance abuse treatment  ,,Does not treat opioid addiction,,,,,,,,,,,,,,,,Does not treat opioid addiction,,"Adults, Young Adults",October 2018,"https://maps.google.com/?q=15290 East 6th Avenue, Aurora, CO 80011",39.7250819,-104.8111263,0,,,False
179,-104.7692154,39.5302132,180,First Step Counseling Inc,,10292 South Progress Way,,Parker,CO,80134,Douglas,303-840-2636,http://www.firststepcounseling.org,2017/02/01 17:30:00,Substance abuse treatment ,,,Substance abuse treatment  ,,Does not treat opioid addiction,,,,,,,,,,,,,,,,Does not treat opioid addiction,,"Adults, Young Adults",October 2018,"https://maps.google.com/?q=10292 South Progress Way, Parker, CO 80134",39.5302132,-104.7692154,0,,,False
180,-105.1414742,40.1881772,181,New Directions Counseling Center,,2919 17th Avenue,Suite 221,Longmont,CO,80501,Boulder,303-682-9473,http://,2018/07/02 13:32:18.003,Substance abuse treatment ,,,Substance abuse treatment  ,,Does not treat opioid addiction,,,,,,,,,,,,,,,,Does not treat opioid addiction,,"Adults, Young Adults",October 2018,"https://maps.google.com/?q=2919 17th Avenue, Longmont, CO 80501",40.1881772,-105.1414742,0,,,False
181,-105.1016453,40.174135,182,Back to Life Counseling LLC,,500 9th Avenue,Suite 10,Longmont,CO,80501,Boulder,303-651-2554,http://www.btlcounseling.com,2017/04/11 09:57:35,Substance abuse treatment ,,,Substance abuse treatment  ,,Does not treat opioid addiction,,,,,,,,,,,,,,,,Does not treat opioid addiction,,"Adults, Young Adults",October 2018,"https://maps.google.com/?q=500 9th Avenue, Longmont, CO 80501",40.174135,-105.1016453,0,,,False
182,-104.939594,40.084299,183,New Directions Counseling Center,,209 4th Street,,Dacono,CO,80514,Weld,720-201-6230,http://,2017/07/24 16:10:00.521,Substance abuse treatment ,,,Substance abuse treatment  ,,Does not treat opioid addiction,,,,,,,,,,,,,,,,Does not treat opioid addiction,,"Adults, Young Adults",October 2018,"https://maps.google.com/?q=209 4th Street, Dacono, CO 80514",40.084299,-104.939594,0,,,False
183,-104.8217271,39.98543,184,A New Image Counseling Servs LLC,,76 South Main Street,Suite A,Brighton,CO,80601,Adams,720-685-8360,http://,2018/03/27 08:50:39.802,Substance abuse treatment ,,,Substance abuse treatment  ,,Does not treat opioid addiction,,,,,,,,,,,,,,,,Does not treat opioid addiction,,"Adults, Young Adults",October 2018,"https://maps.google.com/?q=76 South Main Street, Brighton, CO 80601",39.98543,-104.8217271,0,,,False
184,-105.0821768,40.3053568,185,New Directions Counseling Center,,548 Mountain Avenue,,Berthoud,CO,80513,Larimer,970-532-4755 x3,http://,2017/07/24 16:21:59.568,Substance abuse treatment ,,,Substance abuse treatment  ,,Does not treat opioid addiction,,,,,,,,,,,,,,,,Does not treat opioid addiction,,"Adults, Young Adults",October 2018,"https://maps.google.com/?q=548 Mountain Avenue, Berthoud, CO 80513",40.3053568,-105.0821768,0,,,False
185,-104.792322,38.9272535,186,Hoffler and Associates Csl Servs Inc,,1880 Dublin Boulevard,Suite B,Colorado Springs,CO,80918,El Paso,719-599-0047,http://,2018/05/07 13:18:31.822,Substance abuse treatment ,,,Substance abuse treatment  ,,Does not treat opioid addiction,,,,,,,,,,,,,,,,Does not treat opioid addiction,,"Adults, Young Adults",October 2018,"https://maps.google.com/?q=1880 Dublin Boulevard, Colorado Springs, CO 80918",38.9272535,-104.792322,0,,,False
186,-104.8646518,38.8486985,187,1st Choice Counseling LLC,,2616 West Colorado Avenue,Suite 7,Colorado Springs,CO,80904,El Paso,719-424-7024,http://,2017/07/12 14:01:06.723,Substance abuse treatment ,,,Substance abuse treatment  ,,Does not treat opioid addiction,,,,,,,,,,,,,,,,Does not treat opioid addiction,,"Adults, Young Adults",October 2018,"https://maps.google.com/?q=2616 West Colorado Avenue, Colorado Springs, CO 80904",38.8486985,-104.8646518,0,,,False
187,-105.1055703,40.4076746,188,A New Perspective Csl Centers,,2017 West Eisenhower Boulevard,,Loveland,CO,80537,Larimer,970-461-0978,http://www.anewperspective.com,2018/03/27 09:28:51.011,Substance abuse treatment ,,,Substance abuse treatment  ,,Does not treat opioid addiction,,,,,,,,,,,,,,,,Does not treat opioid addiction,,"Adults, Young Adults",October 2018,"https://maps.google.com/?q=2017 West Eisenhower Boulevard, Loveland, CO 80537",40.4076746,-105.1055703,0,,,False
188,-104.7571191,38.8320392,189,A Good Life Counseling,,3806 East Pikes Peak,Suite 104,Colorado Springs,CO,80915,El Paso,719-520-9220,http://agoodlifecounseling.biz,2018/03/14 09:41:39.583,Substance abuse treatment ,,,Substance abuse treatment  ,,Does not treat opioid addiction,,,,,,,,,,,,,,,,Does not treat opioid addiction,,"Adults, Young Adults",October 2018,"https://maps.google.com/?q=3806 East Pikes Peak, Colorado Springs, CO 80915",38.8320392,-104.7571191,0,,,False
189,-104.921195,40.481217,190,A New Perspective Csl Centers,,1226 West Ash Street,Suite D,Windsor,CO,80550,Weld,970-686-8898,http://,2018/03/27 09:30:07.792,Substance abuse treatment ,,,Substance abuse treatment  ,,Does not treat opioid addiction,,,,,,,,,,,,,,,,Does not treat opioid addiction,,"Adults, Young Adults",October 2018,"https://maps.google.com/?q=1226 West Ash Street, Windsor, CO 80550",40.481217,-104.921195,0,,,False
190,-105.0570742,40.5639604,191,Alcohol Counseling and,Guidance Services LLC,1136 East Stuart Street,Suite 2060,Fort Collins,CO,80525,Larimer,970-221-3425,http://,2018/01/29 14:36:44.437,Substance abuse treatment ,,,Substance abuse treatment  ,,Does not treat opioid addiction,,,,,,,,,,,,,,,,Does not treat opioid addiction,,"Adults, Young Adults",October 2018,"https://maps.google.com/?q=1136 East Stuart Street, Fort Collins, CO 80525",40.5639604,-105.0570742,0,,,False
191,-105.0532528,40.5740613,192,A New Perspective Csl Centers,,1004 McHugh Street,,Fort Collins,CO,80524,Larimer,970-419-1100,http://,2018/03/27 09:06:07.927,Substance abuse treatment ,,,Substance abuse treatment  ,,Does not treat opioid addiction,,,,,,,,,,,,,,,,Does not treat opioid addiction,,"Adults, Young Adults",October 2018,"https://maps.google.com/?q=1004 McHugh Street, Fort Collins, CO 80524",40.5740613,-105.0532528,0,,,False
192,-104.600063,38.289923,193,Health Solutions,,1304 Chinook Lane,,Pueblo,CO,81001,Pueblo,719-545-2746 x171,http://www.health.solutions,2018/03/14 09:06:42.315,Substance abuse treatment ,,,Substance abuse treatment  ,,Does not treat opioid addiction,,,,,,,,,,,,,,,,Does not treat opioid addiction,,"Adults, Young Adults",October 2018,"https://maps.google.com/?q=1304 Chinook Lane, Pueblo, CO 81001",38.289923,-104.600063,0,,,False
193,-104.61773,38.26344,194,Southern CO Comprehensive Court Servs,,200 West B Street,Suite 100,Pueblo,CO,81003,Pueblo,719-595-1634,http://,2018/05/03 11:00:20.677,Substance abuse treatment ,,,Substance abuse treatment  ,,Does not treat opioid addiction,,,,,,,,,,,,,,,,Does not treat opioid addiction,,"Adults, Young Adults",October 2018,"https://maps.google.com/?q=200 West B Street, Pueblo, CO 81003",38.26344,-104.61773,0,,,False
194,-108.4959786,39.0808044,195,Personal Growth Counseling,,524 30 Road,Suite 5-B,Grand Junction,CO,81504,Mesa,970-523-5282,http://,2017/08/03 13:39:18.183,Substance abuse treatment ,,,Substance abuse treatment  ,,Does not treat opioid addiction,,,,,,,,,,,,,,,,Does not treat opioid addiction,,"Adults, Young Adults",October 2018,"https://maps.google.com/?q=524 30 Road, Grand Junction, CO 81504",39.0808044,-108.4959786,0,,,False
195,-108.50465,39.077805,196,Foundations 4 Life LLC,,2956 North Avenue,Suite 6,Grand Junction,CO,81503,Mesa,970-589-1649,http://foundations4life.net,2017/08/17 08:30:45.401,Substance abuse treatment ,,,Substance abuse treatment  ,,Does not treat opioid addiction,,,,,,,,,,,,,,,,Does not treat opioid addiction,,"Adults, Young Adults",October 2018,"https://maps.google.com/?q=2956 North Avenue, Grand Junction, CO 81503",39.077805,-108.50465,0,,,False
196,-105.053543,39.700586,197,Center of Hope,,5303 West Kentucky Avenue,,Denver,CO,80226,Jefferson,303-935-7746,http://www.centerofhopedenver.org,2017/02/01 17:30:00,"Substance abuse treatment, Transitional housing or halfway house",,,Substance abuse treatment  ,Transitional housing or halfway house,Does not treat opioid addiction,,,,,,,,,,,,,,,,Does not treat opioid addiction,,"Adults, Young Adults",October 2018,"https://maps.google.com/?q=5303 West Kentucky Avenue, Denver, CO 80226",39.700586,-105.053543,0,,,False
197,-105.0002571,39.7757161,198,Independence House North Side,,4300 Kalamath Street,,Denver,CO,80211,Denver,303-433-1306,http://www.ind-house.com,2017/02/01 17:30:00,"Substance abuse treatment, Transitional housing or halfway house",,,Substance abuse treatment  ,Transitional housing or halfway house,Does not treat opioid addiction,,,,,,,,,,,,,,,,Does not treat opioid addiction,,"Adults, Young Adults",October 2018,"https://maps.google.com/?q=4300 Kalamath Street, Denver, CO 80211",39.7757161,-105.0002571,0,,,False
198,-105.5160119,39.7421627,199,Awareness Counseling Center LLC,Bridge to Change LLC,217 16th Avenue,,Idaho Springs,CO,80452,Clear Creek,303-519-8100,http://bridgetochange.org,2017/02/01 17:30:00,Substance abuse treatment ,,,Substance abuse treatment  ,,Does not treat opioid addiction,,,,,,,,,,,,,,,,Does not treat opioid addiction,,"Adults, Children and Adolescents, Young Adults",October 2018,"https://maps.google.com/?q=217 16th Avenue, Idaho Springs, CO 80452",39.7421627,-105.5160119,0,,,False
199,-106.2924054,39.2487082,200,Colorado Counseling Inc,,118 West 6th Street,,Leadville,CO,80461,Lake,719-486-8087,http://www.mycoloradocounseling.com,2017/02/01 17:30:00,Substance abuse treatment ,,,Substance abuse treatment  ,,Does not treat opioid addiction,,,,,,,,,,,,,,,,Does not treat opioid addiction,,"Adults, Children and Adolescents, Young Adults",October 2018,"https://maps.google.com/?q=118 West 6th Street, Leadville, CO 80461",39.2487082,-106.2924054,0,,,False
200,-105.0696694,39.5908586,201,Joyful Soul Counseling PLLC,,6638 West Ottawa Avenue,Suite 180,Littleton,CO,80128,Jefferson,720-515-6385,http://www.joyfulsoulcounseling.org/,2018/05/07 13:08:35.672,Substance abuse treatment ,,,Substance abuse treatment  ,,Does not treat opioid addiction,,,,,,,,,,,,,,,,Does not treat opioid addiction,,"Adults, Children and Adolescents, Young Adults",October 2018,"https://maps.google.com/?q=6638 West Ottawa Avenue, Littleton, CO 80128",39.5908586,-105.0696694,0,,,False
201,-105.110176,39.74399,202,Center for Change,,1701 Kipling Street,Suite 102,Denver,CO,80215,Jefferson,303-274-4200,http://www.centerforchange-co.com,2017/02/01 17:30:00,Substance abuse treatment ,,,Substance abuse treatment  ,,Does not treat opioid addiction,,,,,,,,,,,,,,,,Does not treat opioid addiction,,"Adults, Children and Adolescents, Young Adults",October 2018,"https://maps.google.com/?q=1701 Kipling Street, Denver, CO 80215",39.74399,-105.110176,0,,,False
202,-105.0825127,39.7041799,203,Touchstone Counseling Center,,777 South Wadsworth Boulevard,Irongate Building 2-205,Denver,CO,80226,Jefferson,303-989-9577,http://www.coloradotcc.com,2018/01/29 15:01:38.059,Substance abuse treatment ,,,Substance abuse treatment  ,,Does not treat opioid addiction,,,,,,,,,,,,,,,,Does not treat opioid addiction,,"Adults, Children and Adolescents, Young Adults",October 2018,"https://maps.google.com/?q=777 South Wadsworth Boulevard, Denver, CO 80226",39.7041799,-105.0825127,0,,,False
203,-105.0824515,39.7732967,204,Center for Change,,7651 West 41st Avenue,Suite 201,Wheat Ridge,CO,80033,Jefferson,303-422-4126,http://www.centerforchange-co.com,2017/07/26 17:08:48.233,Substance abuse treatment ,,,Substance abuse treatment  ,,Does not treat opioid addiction,,,,,,,,,,,,,,,,Does not treat opioid addiction,,"Adults, Children and Adolescents, Young Adults",October 2018,"https://maps.google.com/?q=7651 West 41st Avenue, Wheat Ridge, CO 80033",39.7732967,-105.0824515,0,,,False
204,-105.0154792,39.7109131,205,IDEA Forum Inc,IDEA Denver,2370 West Alameda Avenue,Suite 8,Denver,CO,80223,Denver,303-477-8280,http://www.ideacares.com,2018/08/20 09:12:40.283,Substance abuse treatment ,,,Substance abuse treatment  ,,Does not treat opioid addiction,,,,,,,,,,,,,,,,Does not treat opioid addiction,,"Adults, Children and Adolescents, Young Adults",October 2018,"https://maps.google.com/?q=2370 West Alameda Avenue, Denver, CO 80223",39.7109131,-105.0154792,0,,,False
205,-105.253618091058,40.0182730074961,206,Rangeview Counseling Center,,1790 30th Street,Suite 305,Boulder,CO,80301,Boulder,303-447-2038,http://www.rangeviewcounselingcenter.com,2017/02/01 17:30:00,Substance abuse treatment ,,,Substance abuse treatment  ,,Does not treat opioid addiction,,,,,,,,,,,,,,,,Does not treat opioid addiction,,"Adults, Children and Adolescents, Young Adults",October 2018,"https://maps.google.com/?q=1790 30th Street, Boulder, CO 80301",40.0182730074961,-105.253618091058,0,,,False
206,-106.593699,39.6450543,207,Colorado Counseling Inc,,0069 Access Road,Suite 11-3,Edwards,CO,81632,Eagle,970-926-8196,http://www.mycoloradocounseling.com,2018/08/06 09:14:06.240,Substance abuse treatment ,,,Substance abuse treatment  ,,Does not treat opioid addiction,,,,,,,,,,,,,,,,Does not treat opioid addiction,,"Adults, Children and Adolescents, Young Adults",October 2018,"https://maps.google.com/?q=0069 Access Road, Edwards, CO 81632",39.6450543,-106.593699,0,,,False
207,-104.982814750845,39.7038281735817,208,Broadway Counseling Services LLC,,701 South Logan Street,Suite 105,Denver,CO,80209,Denver,303-733-8784,http://www.broadwaycounseling.com,2017/02/01 17:30:00,Substance abuse treatment ,,,Substance abuse treatment  ,,Does not treat opioid addiction,,,,,,,,,,,,,,,,Does not treat opioid addiction,,"Adults, Children and Adolescents, Young Adults",October 2018,"https://maps.google.com/?q=701 South Logan Street, Denver, CO 80209",39.7038281735816,-104.982814750845,0,,,False
208,-104.9704356,39.6822998,209,Centerboard Wellness Center,,1455 East Jewell Avenue,Suite 301,Denver,CO,80222,Denver,720-324-0008,http://www.centerboardrecoverycenter.com,2018/07/02 12:59:23.717,Substance abuse treatment ,,,Substance abuse treatment  ,,Does not treat opioid addiction,,,,,,,,,,,,,,,,Does not treat opioid addiction,,"Adults, Children and Adolescents, Young Adults",October 2018,"https://maps.google.com/?q=1455 East Jewell Avenue, Denver, CO 80222",39.6822998,-104.9704356,0,,,False
209,-105.0244422,39.8422737,210,Center for Change LLC,,8020 Federal Boulevard,Suite 6,Westminster,CO,80031,Adams,720-638-9986,http://www.centerforchange-co.com,2018/08/06 09:13:28.213,Substance abuse treatment ,,,Substance abuse treatment  ,,Does not treat opioid addiction,,,,,,,,,,,,,,,,Does not treat opioid addiction,,"Adults, Children and Adolescents, Young Adults",October 2018,"https://maps.google.com/?q=8020 Federal Boulevard, Westminster, CO 80031",39.8422737,-105.0244422,0,,,False
210,-105.1319588,39.9851938,211,Aspen Treatment Services Inc,,1518 Main Street,Unit 102,Louisville,CO,80027,Boulder,303-757-4410,http://www.aspentreatmentservices.com,2018/05/21 15:46:02.443,Substance abuse treatment ,,,Substance abuse treatment  ,,Does not treat opioid addiction,,,,,,,,,,,,,,,,Does not treat opioid addiction,,"Adults, Children and Adolescents, Young Adults",October 2018,"https://maps.google.com/?q=1518 Main Street, Louisville, CO 80027",39.9851938,-105.1319588,0,,,False
211,-104.9413204,39.6920359,212,Maria Droste Counseling Center,,1355 South Colorado Boulevard,"Building C, Suite 100",Denver,CO,80222,Denver,303-756-9052,http://www.mariadroste.org,2018/07/02 13:26:44.206,Substance abuse treatment ,,,Substance abuse treatment  ,,Does not treat opioid addiction,,,,,,,,,,,,,,,,Does not treat opioid addiction,,"Adults, Children and Adolescents, Young Adults",October 2018,"https://maps.google.com/?q=1355 South Colorado Boulevard, Denver, CO 80222",39.6920359,-104.9413204,0,,,False
212,-104.959653,39.7704695,213,Diversity Counseling and Educ Ctr,,3840 York Street,Suite 101,Denver,CO,80205,Denver,303-296-2350,http://www.diversitycounselinginc.com,2018/03/26 16:12:32.523,Substance abuse treatment ,,,Substance abuse treatment  ,,Does not treat opioid addiction,,,,,,,,,,,,,,,,Does not treat opioid addiction,,"Adults, Children and Adolescents, Young Adults",October 2018,"https://maps.google.com/?q=3840 York Street, Denver, CO 80205",39.7704695,-104.959653,0,,,False
213,-104.8974236,39.5947053,214,Life Support Behavioral Institute,IOP for Adol and Adult Drug/Alc,7853 East Arapahoe Court,Suite 3550,Englewood,CO,80112,Arapahoe,888-516-5995 x3,http://www.lifesupportinstitute.com,2018/03/27 08:32:11.138,Substance abuse treatment ,,,Substance abuse treatment  ,,Does not treat opioid addiction,,,,,,,,,,,,,,,,Does not treat opioid addiction,,"Adults, Children and Adolescents, Young Adults",October 2018,"https://maps.google.com/?q=7853 East Arapahoe Court, Englewood, CO 80112",39.5947053,-104.8974236,0,,,False
214,-104.915031953522,39.7372107231501,215,Alpar Human Development Services,Alcohol Outpatient Treatment,1330 Leyden Street,Suite 103,Denver,CO,80220,Denver,303-329-8209,http://,2017/02/01 17:30:00,Substance abuse treatment ,,,Substance abuse treatment  ,,Does not treat opioid addiction,,,,,,,,,,,,,,,,Does not treat opioid addiction,,"Adults, Children and Adolescents, Young Adults",October 2018,"https://maps.google.com/?q=1330 Leyden Street, Denver, CO 80220",39.73721072315,-104.915031953522,0,,,False
